{"type":"FeatureCollection","features":[{"type":"Feature","properties":{"OBJECTID":1,"Name":"Gallatin Sporting Clays","WEBSITE":"http://www.gallatinclays.org","CONTACT":" ","PHONE":4063881346,"ADDRESS":"1300 Little Coulee Trail","CITY":"Bozeman","OUTDOOR":"x","INDOOR":" ","ARCH":" ","SHOTG":"x","SHOTGUNTYP":"sporting, 5 stand","HANDG":" ","RIFLE":" ","MUZZLEL":" "},"geometry":{"type":"Point","coordinates":[-111.44061,45.891851]}},{"type":"Feature","properties":{"OBJECTID":2,"Name":"Logan Gun Club","WEBSITE":" ","CONTACT":"Gary Reed","PHONE":" ","ADDRESS":"438 Logan Trident Road","CITY":"Logan","OUTDOOR":"x","INDOOR":" ","ARCH":"x","SHOTG":"x","SHOTGUNTYP":"trap, skeet","HANDG":"x","RIFLE":"x","MUZZLEL":"x"},"geometry":{"type":"Point","coordinates":[-111.44061,45.891851]}},{"type":"Feature","properties":{"OBJECTID":3,"Name":"Havre Trap Club","WEBSITE":" ","CONTACT":"Earl Hepler","PHONE":" ","ADDRESS":"101 Co Rd 802\r\n","CITY":"Havre","OUTDOOR":" ","INDOOR":" ","ARCH":" ","SHOTG":"x","SHOTGUNTYP":" ","HANDG":" ","RIFLE":" ","MUZZLEL":" "},"geometry":{"type":"Point","coordinates":[-109.670642,48.522414]}},{"type":"Feature","properties":{"OBJECTID":4,"Name":"Rudyard Gun Club","WEBSITE":" ","CONTACT":"Bob Wehr","PHONE":" ","ADDRESS":"Rudyard Road South","CITY":"Rudyard","OUTDOOR":"x","INDOOR":" ","ARCH":" ","SHOTG":"x","SHOTGUNTYP":" ","HANDG":" ","RIFLE":" ","MUZZLEL":" "},"geometry":{"type":"Point","coordinates":[-110.560841,48.465788]}},{"type":"Feature","properties":{"OBJECTID":5,"Name":"Judith Basin Archery Club","WEBSITE":" ","CONTACT":" ","PHONE":4065662292,"ADDRESS":"3rd St W\r\n","CITY":"Stanford","OUTDOOR":"x","INDOOR":"x","ARCH":"x","SHOTG":" ","SHOTGUNTYP":" ","HANDG":" ","RIFLE":" ","MUZZLEL":" "},"geometry":{"type":"Point","coordinates":[-110.223756,47.149043]}},{"type":"Feature","properties":{"OBJECTID":6,"Name":"Helena Trap Club","WEBSITE":"http://www.helenatrapclub.com","CONTACT":"Mark Keller","PHONE":4064589920,"ADDRESS":"5505 Norh Montana Ave","CITY":"Helena","OUTDOOR":"x","INDOOR":" ","ARCH":" ","SHOTG":"x","SHOTGUNTYP":"trap","HANDG":" ","RIFLE":" ","MUZZLEL":" "},"geometry":{"type":"Point","coordinates":[-112.018259,46.653576]}},{"type":"Feature","properties":{"OBJECTID":7,"Name":"Tobacco Valley Rod & Gun","WEBSITE":" ","CONTACT":" ","PHONE":" ","ADDRESS":"3rd St W","CITY":"Eureka","OUTDOOR":"x","INDOOR":" ","ARCH":" ","SHOTG":"x","SHOTGUNTYP":" ","HANDG":"x","RIFLE":"x","MUZZLEL":"x"},"geometry":{"type":"Point","coordinates":[-115.070916,48.856929]}},{"type":"Feature","properties":{"OBJECTID":8,"Name":"Hellgate Civilian Shooters Association","WEBSITE":"http://www.hellgatecsa.org","CONTACT":" ","PHONE":4065433075,"ADDRESS":"17770 Deep Creek Rd.","CITY":"Missoula","OUTDOOR":"x","INDOOR":" ","ARCH":" ","SHOTG":"x","SHOTGUNTYP":"unk","HANDG":"x","RIFLE":"x","MUZZLEL":"x"},"geometry":{"type":"Point","coordinates":[-114.07593,46.8595]}},{"type":"Feature","properties":{"OBJECTID":9,"Name":"Five Valley Archery","WEBSITE":"https://www.facebook.com/FVArcheryClub","CONTACT":"Paul Roush","PHONE":" ","ADDRESS":"5106 Mainview Dr","CITY":"Missoula","OUTDOOR":"x","INDOOR":" ","ARCH":" ","SHOTG":" ","SHOTGUNTYP":" ","HANDG":" ","RIFLE":" ","MUZZLEL":" "},"geometry":{"type":"Point","coordinates":[-114.063184,46.792151]}},{"type":"Feature","properties":{"OBJECTID":10,"Name":"Missoula Trap & Skeet Club","WEBSITE":"http://www.missoulatrapandskeet.com","CONTACT":"Gene Clawson","PHONE":4065494815,"ADDRESS":"8650 Hwy 10 W","CITY":"Missoula","OUTDOOR":"x","INDOOR":" ","ARCH":" ","SHOTG":"x","SHOTGUNTYP":"trap, skeet, 5 stand","HANDG":" ","RIFLE":" ","MUZZLEL":" "},"geometry":{"type":"Point","coordinates":[-114.148243,46.954403]}},{"type":"Feature","properties":{"OBJECTID":11,"Name":"Wilderness Sportsman Club","WEBSITE":"http://www.mtwsc.org","CONTACT":" ","PHONE":" ","ADDRESS":"Woodworth Seeley Lake Rd\r\n","CITY":"Seeley Lake","OUTDOOR":"x","INDOOR":" ","ARCH":" ","SHOTG":"x","SHOTGUNTYP":" ","HANDG":"x","RIFLE":"x","MUZZLEL":"x"},"geometry":{"type":"Point","coordinates":[-113.445192,47.189026]}},{"type":"Feature","properties":{"OBJECTID":12,"Name":"Park County Rod & Gun","WEBSITE":"http://www.pcrgc.blogspot.com","CONTACT":"Hayes Goosey","PHONE":4065800119,"ADDRESS":"Meigs Road","CITY":"Livingston","OUTDOOR":"x","INDOOR":" ","ARCH":"x","SHOTG":"x","SHOTGUNTYP":"trap","HANDG":"x","RIFLE":"x","MUZZLEL":"x"},"geometry":{"type":"Point","coordinates":[-110.574116,45.702672]}},{"type":"Feature","properties":{"OBJECTID":13,"Name":"Hamilton Trap Club","WEBSITE":"http://www.hamiltontrapclub.com","CONTACT":"Mary Guiles","PHONE":4063632656,"ADDRESS":"Hamilton Airport Road","CITY":"Hamilton","OUTDOOR":"x","INDOOR":" ","ARCH":" ","SHOTG":"x","SHOTGUNTYP":"trap, 5 stand","HANDG":" ","RIFLE":" ","MUZZLEL":" "},"geometry":{"type":"Point","coordinates":[-114.130436,46.252854]}},{"type":"Feature","properties":{"OBJECTID":14,"Name":"Whittecar Rifle & Pistol Range","WEBSITE":"http://www.whittecarrange.com","CONTACT":"Hoot Gibson","PHONE":4063637078,"ADDRESS":"578 Blodgett View Rd","CITY":"Hamilton","OUTDOOR":"x","INDOOR":" ","ARCH":" ","SHOTG":"x","SHOTGUNTYP":"5 stand","HANDG":"x","RIFLE":"x","MUZZLEL":"x"},"geometry":{"type":"Point","coordinates":[-114.215222,46.273361]}},{"type":"Feature","properties":{"OBJECTID":15,"Name":"Lone Tree Archers","WEBSITE":" ","CONTACT":"Kenny Satra","PHONE":" ","ADDRESS":"County Roud 122 (8 miles from Sidney)\r\n","CITY":"Sidney","OUTDOOR":"x","INDOOR":" ","ARCH":"x","SHOTG":" ","SHOTGUNTYP":" ","HANDG":" ","RIFLE":" ","MUZZLEL":" "},"geometry":{"type":"Point","coordinates":[-104.079468,47.704263]}},{"type":"Feature","properties":{"OBJECTID":16,"Name":"Colstrip Sportsmans Club","WEBSITE":" ","CONTACT":"Bob Henriksen","PHONE":" ","ADDRESS":"left off of MT-39 N\r\n","CITY":"Colstrip","OUTDOOR":"x","INDOOR":"x","ARCH":"x","SHOTG":" ","SHOTGUNTYP":" ","HANDG":"x","RIFLE":"x","MUZZLEL":"x"},"geometry":{"type":"Point","coordinates":[-106.640736,45.898776]}},{"type":"Feature","properties":{"OBJECTID":17,"Name":"Hot Springs Shooting Range","WEBSITE":" ","CONTACT":"Don F Smith","PHONE":" ","ADDRESS":"124 Little Bitteroot Road\r\n","CITY":"Hot Springs","OUTDOOR":"x","INDOOR":" ","ARCH":"x","SHOTG":"x","SHOTGUNTYP":"trap","HANDG":"x","RIFLE":"x","MUZZLEL":"x"},"geometry":{"type":"Point","coordinates":[-114.599575,47.61335]}},{"type":"Feature","properties":{"OBJECTID":18,"Name":"Noxon Rod & Gun Club","WEBSITE":"http://www.rockymountainrangers.com","CONTACT":"Jim Mershon","PHONE":" ","ADDRESS":"305 Remington Road\r\n","CITY":"Noxon","OUTDOOR":"x","INDOOR":"x","ARCH":"x","SHOTG":"x","SHOTGUNTYP":"trap","HANDG":"x","RIFLE":"x","MUZZLEL":"x"},"geometry":{"type":"Point","coordinates":[-115.771364,47.986398]}},{"type":"Feature","properties":{"OBJECTID":19,"Name":"Plains City Range","WEBSITE":" ","CONTACT":"Bill Holland","PHONE":" ","ADDRESS":"7245 MT-200 \r\n","CITY":"Plains","OUTDOOR":"x","INDOOR":" ","ARCH":" ","SHOTG":" ","SHOTGUNTYP":" ","HANDG":"x","RIFLE":"x","MUZZLEL":"x"},"geometry":{"type":"Point","coordinates":[-114.920995,47.503097]}},{"type":"Feature","properties":{"OBJECTID":20,"Name":"Thompson Falls Trap Club","WEBSITE":" ","CONTACT":"Mike Freed","PHONE":" ","ADDRESS":"26 Trap Club Lane\r\n","CITY":"Thompson Falls","OUTDOOR":"x","INDOOR":" ","ARCH":"x","SHOTG":"x","SHOTGUNTYP":" ","HANDG":"x","RIFLE":"x","MUZZLEL":"x"},"geometry":{"type":"Point","coordinates":[-115.232171,47.580966]}},{"type":"Feature","properties":{"OBJECTID":21,"Name":"Plentywood Trap Club","WEBSITE":" ","CONTACT":"Melvin Hall","PHONE":" ","ADDRESS":"Sheridan County Fairgrounds\r\n","CITY":"Plentywood","OUTDOOR":" ","INDOOR":" ","ARCH":" ","SHOTG":"x","SHOTGUNTYP":"trap","HANDG":" ","RIFLE":" ","MUZZLEL":" "},"geometry":{"type":"Point","coordinates":[-104.538992,48.767779]}},{"type":"Feature","properties":{"OBJECTID":22,"Name":"Windy Ridge Trap","WEBSITE":" ","CONTACT":"Cas Dirkis","PHONE":" ","ADDRESS":"32 1st Road NW\r\n","CITY":"Fairfield","OUTDOOR":" ","INDOOR":" ","ARCH":" ","SHOTG":" ","SHOTGUNTYP":" ","HANDG":" ","RIFLE":" ","MUZZLEL":" "},"geometry":{"type":"Point","coordinates":[-111.990882,47.620544]}},{"type":"Feature","properties":{"OBJECTID":23,"Name":"Shelby Trap Club","WEBSITE":" ","CONTACT":"Ray Tomscheck","PHONE":" ","ADDRESS":"90 Benjamin Road \r\n","CITY":"Shelby","OUTDOOR":"x","INDOOR":" ","ARCH":" ","SHOTG":"x","SHOTGUNTYP":" ","HANDG":" ","RIFLE":"x","MUZZLEL":" "},"geometry":{"type":"Point","coordinates":[-111.832424,48.510689]}},{"type":"Feature","properties":{"OBJECTID":24,"Name":"Billings Rod & Gun Club","WEBSITE":"http://www.billingsrodandgun.org","CONTACT":"Larry Whitmyer","PHONE":4062590006,"ADDRESS":"2931 Rod And Gun Club Rd","CITY":"Billings","OUTDOOR":"x","INDOOR":"x","ARCH":"x","SHOTG":"x","SHOTGUNTYP":"skeet, sporting, 5 stand","HANDG":"x","RIFLE":"x","MUZZLEL":"x"},"geometry":{"type":"Point","coordinates":[-108.590383,45.81669]}},{"type":"Feature","properties":{"OBJECTID":25,"Name":"Broadwater Rod & Gun Club","WEBSITE":"http://www.brgcmt.com","CONTACT":"Virgil Binkley","PHONE":" ","ADDRESS":"330 Indian Creek Road\r\n","CITY":"Townsend","OUTDOOR":"x","INDOOR":"x","ARCH":" ","SHOTG":"x","SHOTGUNTYP":"trap","HANDG":"x","RIFLE":"x","MUZZLEL":" "},"geometry":{"type":"Point","coordinates":[-111.602432,46.335959]}},{"type":"Feature","properties":{"OBJECTID":26,"Name":"Central Montana Shooting Complex","WEBSITE":"http://www.cmtsc.com","CONTACT":"Bruce Luhrsen","PHONE":4065389408,"ADDRESS":"520 Lime Klin Rd","CITY":"Lewistown","OUTDOOR":"x","INDOOR":" ","ARCH":" ","SHOTG":"x","SHOTGUNTYP":"sporting clay, trap, skeet","HANDG":"x","RIFLE":"x","MUZZLEL":"x"},"geometry":{"type":"Point","coordinates":[-109.42498,47.096618]}},{"type":"Feature","properties":{"OBJECTID":27,"Name":"Anaconda Archery Range","WEBSITE":" ","CONTACT":" ","PHONE":" ","ADDRESS":"Washoe Park\r\n","CITY":"Anaconda","OUTDOOR":" ","INDOOR":" ","ARCH":" ","SHOTG":" ","SHOTGUNTYP":" ","HANDG":" ","RIFLE":" ","MUZZLEL":" "},"geometry":{"type":"Point","coordinates":[-112.960762,46.135262]}},{"type":"Feature","properties":{"OBJECTID":28,"Name":"Anaconda Trap Club","WEBSITE":" ","CONTACT":" ","PHONE":4065633800,"ADDRESS":"4111 Mount Highway 1 E","CITY":"Anaconda","OUTDOOR":"x","INDOOR":" ","ARCH":" ","SHOTG":"x","SHOTGUNTYP":"trap, skeet","HANDG":" ","RIFLE":" ","MUZZLEL":" "},"geometry":{"type":"Point","coordinates":[-112.850804,46.110845]}},{"type":"Feature","properties":{"OBJECTID":29,"Name":"Cut Bank Sportsman's Gun Range","WEBSITE":"http://www.cutbanksportsman.blogspot.com","CONTACT":" ","PHONE":" ","ADDRESS":"2628 Valier HWY","CITY":"Cut Bank","OUTDOOR":" ","INDOOR":" ","ARCH":" ","SHOTG":" ","SHOTGUNTYP":" ","HANDG":" ","RIFLE":" ","MUZZLEL":" "},"geometry":{"type":"Point","coordinates":[-112.359098,48.605807]}},{"type":"Feature","properties":{"OBJECTID":30,"Name":"Pondera Shooting Sports","WEBSITE":" ","CONTACT":" ","PHONE":" ","ADDRESS":"972 GRANITE RD\r\n","CITY":"Conrad","OUTDOOR":" ","INDOOR":" ","ARCH":" ","SHOTG":" ","SHOTGUNTYP":" ","HANDG":" ","RIFLE":" ","MUZZLEL":" "},"geometry":{"type":"Point","coordinates":[-111.977553,48.163588]}},{"type":"Feature","properties":{"OBJECTID":31,"Name":"Western Montana Fish and Game Association","WEBSITE":"http://www.wmfg.org","CONTACT":" ","PHONE":4063700804,"ADDRESS":"6328 Shooting Center Lane","CITY":"Missoula","OUTDOOR":"x","INDOOR":"x","ARCH":"x","SHOTG":"x","SHOTGUNTYP":"trap","HANDG":"x","RIFLE":"x","MUZZLEL":"x"},"geometry":{"type":"Point","coordinates":[-113.92264,46.872431]}},{"type":"Feature","properties":{"OBJECTID":32,"Name":"Chinook Rod and Gun Club","WEBSITE":" ","CONTACT":" ","PHONE":" ","ADDRESS":"Clear Creek Road","CITY":"Chinook","OUTDOOR":" ","INDOOR":" ","ARCH":" ","SHOTG":" ","SHOTGUNTYP":" ","HANDG":"x","RIFLE":" ","MUZZLEL":" "},"geometry":{"type":"Point","coordinates":[-109.310617,48.549063]}},{"type":"Feature","properties":{"OBJECTID":33,"Name":"Rocky Mountain Rangers","WEBSITE":" ","CONTACT":" ","PHONE":" ","ADDRESS":"305 Remington Road\r\n","CITY":"Noxon","OUTDOOR":" ","INDOOR":" ","ARCH":" ","SHOTG":" ","SHOTGUNTYP":" ","HANDG":" ","RIFLE":" ","MUZZLEL":" "},"geometry":{"type":"Point","coordinates":[-115.771364,47.986398]}},{"type":"Feature","properties":{"OBJECTID":34,"Name":"Beaverhead Gun Club","WEBSITE":" ","CONTACT":"Hank Greitl","PHONE":4066834923,"ADDRESS":"2125 White Lane\r\n","CITY":"Dillon","OUTDOOR":"x","INDOOR":" ","ARCH":" ","SHOTG":"x","SHOTGUNTYP":"trap","HANDG":" ","RIFLE":" ","MUZZLEL":" "},"geometry":{"type":"Point","coordinates":[-112.61386,45.199458]}},{"type":"Feature","properties":{"OBJECTID":35,"Name":"Trails End Rifle & Pistol Club","WEBSITE":" ","CONTACT":"Terry Pedersen","PHONE":4063776836,"ADDRESS":"917 Snyder Ave\r\n","CITY":"Glendive","OUTDOOR":" ","INDOOR":"x","ARCH":" ","SHOTG":" ","SHOTGUNTYP":" ","HANDG":"x","RIFLE":"x","MUZZLEL":" "},"geometry":{"type":"Point","coordinates":[-104.710535,47.090718]}},{"type":"Feature","properties":{"OBJECTID":36,"Name":"Anaconda Rifle & Pistol Club","WEBSITE":" ","CONTACT":" ","PHONE":4065635691,"ADDRESS":"4434 N Cable Road \r\n","CITY":"Anaconda","OUTDOOR":" ","INDOOR":" ","ARCH":" ","SHOTG":" ","SHOTGUNTYP":" ","HANDG":" ","RIFLE":"x","MUZZLEL":" "},"geometry":{"type":"Point","coordinates":[-113.059952,46.165142]}},{"type":"Feature","properties":{"OBJECTID":37,"Name":"Billings Trap Club","WEBSITE":"http://www.billingstrapclub.com","CONTACT":"Dave Rahn","PHONE":4062596148,"ADDRESS":"2499 Lake Elmo Dr","CITY":"Billings","OUTDOOR":"x","INDOOR":" ","ARCH":" ","SHOTG":"x","SHOTGUNTYP":"trap","HANDG":" ","RIFLE":" ","MUZZLEL":" "},"geometry":{"type":"Point","coordinates":[-108.475011,45.84201]}},{"type":"Feature","properties":{"OBJECTID":38,"Name":"Polson Shooters Association","WEBSITE":"http://www.polsonshooters.com","CONTACT":"Rob St. Clair","PHONE":4062708886,"ADDRESS":"38386 Kerr Dam Rd","CITY":"Polson","OUTDOOR":"x","INDOOR":" ","ARCH":" ","SHOTG":" ","SHOTGUNTYP":" ","HANDG":"x","RIFLE":"x","MUZZLEL":"x"},"geometry":{"type":"Point","coordinates":[-114.1953,47.661347]}},{"type":"Feature","properties":{"OBJECTID":39,"Name":"Montana Fish, Wildlife & Parks","WEBSITE":"fwp.mt.gov/education/montanaWild/","CONTACT":" ","PHONE":"(406) 444-9944","ADDRESS":"2668 Broadwater Ave\r\n","CITY":"Helena","OUTDOOR":"x","INDOOR":" ","ARCH":"x","SHOTG":" ","SHOTGUNTYP":" ","HANDG":" ","RIFLE":" ","MUZZLEL":" "},"geometry":{"type":"Point","coordinates":[-112.077465,46.608618]}},{"type":"Feature","properties":{"OBJECTID":40,"Name":"Lewistown Trap & Skeet Club","WEBSITE":" ","CONTACT":"Bill Berg","PHONE":4065383289,"ADDRESS":"863 Airport Road","CITY":"Lewistown","OUTDOOR":"x","INDOOR":" ","ARCH":" ","SHOTG":"x","SHOTGUNTYP":"trap, skeet","HANDG":" ","RIFLE":" ","MUZZLEL":" "},"geometry":{"type":"Point","coordinates":[-109.454844,47.044897]}},{"type":"Feature","properties":{"OBJECTID":41,"Name":"Bigfork Gun Club","WEBSITE":"http://www.bigforkgunclub.com","CONTACT":"Crow Carter","PHONE":4068373805,"ADDRESS":"78569-79077 Highway 83","CITY":"Bigfork","OUTDOOR":"x","INDOOR":" ","ARCH":" ","SHOTG":"x","SHOTGUNTYP":"trap, skeet","HANDG":"x","RIFLE":"x","MUZZLEL":" "},"geometry":{"type":"Point","coordinates":[-113.950679,48.011322]}},{"type":"Feature","properties":{"OBJECTID":42,"Name":"Mission Valley Shooting Range","WEBSITE":" ","CONTACT":"Dan Toelke","PHONE":4062503386,"ADDRESS":"46341 Leghton Rd","CITY":"Ronan","OUTDOOR":"x","INDOOR":"x","ARCH":"x","SHOTG":" ","SHOTGUNTYP":" ","HANDG":"x","RIFLE":"x","MUZZLEL":"x"},"geometry":{"type":"Point","coordinates":[-114.155999,47.539261]}},{"type":"Feature","properties":{"OBJECTID":43,"Name":"Libby Rod & Gun Club","WEBSITE":" ","CONTACT":"Don Clark","PHONE":" ","ADDRESS":"319 Warren Rd","CITY":"Libby","OUTDOOR":"x","INDOOR":" ","ARCH":" ","SHOTG":"x","SHOTGUNTYP":"trap","HANDG":"x","RIFLE":"x","MUZZLEL":"x"},"geometry":{"type":"Point","coordinates":[-115.487784,48.28942]}},{"type":"Feature","properties":{"OBJECTID":44,"Name":"Hellgate Civilian Juniors","WEBSITE":" ","CONTACT":" ","PHONE":" ","ADDRESS":"2331 S Third West","CITY":"Missoula","OUTDOOR":" ","INDOOR":" ","ARCH":" ","SHOTG":" ","SHOTGUNTYP":" ","HANDG":" ","RIFLE":" ","MUZZLEL":" "},"geometry":{"type":"Point","coordinates":[-114.07593,46.8595]}},{"type":"Feature","properties":{"OBJECTID":45,"Name":"Valley County Rifle and Pistol Club","WEBSITE":" ","CONTACT":"Ken Holt","PHONE":" ","ADDRESS":"186 Fox Farm Rd","CITY":"Nashua","OUTDOOR":"x","INDOOR":" ","ARCH":" ","SHOTG":"x","SHOTGUNTYP":" ","HANDG":"x","RIFLE":"x","MUZZLEL":"x"},"geometry":{"type":"Point","coordinates":[-106.602468,48.219651]}},{"type":"Feature","properties":{"OBJECTID":46,"Name":"Dillon Rifle Range","WEBSITE":" ","CONTACT":"Bitterroot Trading Post","PHONE":" ","ADDRESS":"Dump Road","CITY":"Dillon","OUTDOOR":"x","INDOOR":" ","ARCH":" ","SHOTG":" ","SHOTGUNTYP":" ","HANDG":"x","RIFLE":"x","MUZZLEL":"x"},"geometry":{"type":"Point","coordinates":[-112.760441,45.2355]}},{"type":"Feature","properties":{"OBJECTID":47,"Name":"Treasure Shooting Association","WEBSITE":" ","CONTACT":" ","PHONE":" ","ADDRESS":"Old Highway 10\r\n","CITY":"Hysham","OUTDOOR":"x","INDOOR":" ","ARCH":" ","SHOTG":" ","SHOTGUNTYP":" ","HANDG":" ","RIFLE":" ","MUZZLEL":" "},"geometry":{"type":"Point","coordinates":[-107.28637,46.2486]}},{"type":"Feature","properties":{"OBJECTID":49,"Name":"Harlem Rod & Gun Club","WEBSITE":" ","CONTACT":"Frank Orlando","PHONE":" ","ADDRESS":"North of Harlem","CITY":"Harlem","OUTDOOR":"x","INDOOR":" ","ARCH":" ","SHOTG":"x","SHOTGUNTYP":"trap","HANDG":" ","RIFLE":" ","MUZZLEL":" "},"geometry":{"type":"Point","coordinates":[-108.79417,48.53336]}},{"type":"Feature","properties":{"OBJECTID":50,"Name":"Broadwater Rod & Gun Club","WEBSITE":"http://www.brgcmt.com","CONTACT":"Virgil Binkley","PHONE":" ","ADDRESS":"Indian Creek Rd","CITY":"Townsend","OUTDOOR":"x","INDOOR":" ","ARCH":" ","SHOTG":" ","SHOTGUNTYP":" ","HANDG":" ","RIFLE":" ","MUZZLEL":" "},"geometry":{"type":"Point","coordinates":[-111.602432,46.335959]}},{"type":"Feature","properties":{"OBJECTID":51,"Name":"Broadwater Rod & Gun Club","WEBSITE":"http://www.brgcmt.com","CONTACT":"Neil Severinson","PHONE":" ","ADDRESS":"Indian Creek Rd","CITY":"Townsend","OUTDOOR":"x","INDOOR":"x","ARCH":" ","SHOTG":"x","SHOTGUNTYP":"5 stand","HANDG":"x","RIFLE":"x","MUZZLEL":" "},"geometry":{"type":"Point","coordinates":[-111.600392,46.335484]}},{"type":"Feature","properties":{"OBJECTID":52,"Name":"Great Falls Shooting Sports Complex","WEBSITE":"http://www.gfssc.org","CONTACT":"Jim Panagopoulos","PHONE":" ","ADDRESS":"2611 10th Ave S Suite 2","CITY":"Great Falls","OUTDOOR":"x","INDOOR":" ","ARCH":" ","SHOTG":" ","SHOTGUNTYP":" ","HANDG":"x","RIFLE":"x","MUZZLEL":" "},"geometry":{"type":"Point","coordinates":[-111.229669,47.572542]}},{"type":"Feature","properties":{"OBJECTID":53,"Name":"Great Falls Trap & Skeet Club","WEBSITE":" ","CONTACT":"Rick Dorr","PHONE":4064535032,"ADDRESS":"183 N Ulm Frontage Rd","CITY":"Great Falls","OUTDOOR":"x","INDOOR":" ","ARCH":" ","SHOTG":"x","SHOTGUNTYP":"trap, skeet, 5stand","HANDG":"x","RIFLE":"x","MUZZLEL":" "},"geometry":{"type":"Point","coordinates":[-111.474416,47.445027]}},{"type":"Feature","properties":{"OBJECTID":54,"Name":"Custer Rod & Gun Club","WEBSITE":"http://www.custerrodandgun.com","CONTACT":"Fred Tetschner","PHONE":" ","ADDRESS":"181 Wednesday Drive\r\n","CITY":"Miles City","OUTDOOR":"x","INDOOR":" ","ARCH":"x","SHOTG":"x","SHOTGUNTYP":"trap, skeet","HANDG":"x","RIFLE":"x","MUZZLEL":" "},"geometry":{"type":"Point","coordinates":[-105.869975,46.48201]}},{"type":"Feature","properties":{"OBJECTID":55,"Name":"Glendive Trap Club","WEBSITE":" ","CONTACT":"Faron Hansen","PHONE":" ","ADDRESS":"440 Colorado Blvd\r\n","CITY":"Glendive","OUTDOOR":" ","INDOOR":" ","ARCH":" ","SHOTG":" ","SHOTGUNTYP":" ","HANDG":" ","RIFLE":" ","MUZZLEL":" "},"geometry":{"type":"Point","coordinates":[-104.685268,47.132492]}},{"type":"Feature","properties":{"OBJECTID":56,"Name":"Fallon County Sportsman Club","WEBSITE":" ","CONTACT":" ","PHONE":" ","ADDRESS":"8806 Hwy 12 S \r\n","CITY":"Baker","OUTDOOR":"x","INDOOR":" ","ARCH":" ","SHOTG":"x","SHOTGUNTYP":" ","HANDG":"x","RIFLE":"x","MUZZLEL":"x"},"geometry":{"type":"Point","coordinates":[-104.2667,46.4553]}},{"type":"Feature","properties":{"OBJECTID":57,"Name":"Denton Rod & Gun Club","WEBSITE":" ","CONTACT":"Orville McCracken","PHONE":" ","ADDRESS":"12842 MT-81\r\n","CITY":"Denton","OUTDOOR":"x","INDOOR":" ","ARCH":" ","SHOTG":" ","SHOTGUNTYP":" ","HANDG":"x","RIFLE":"x","MUZZLEL":" "},"geometry":{"type":"Point","coordinates":[-109.957465,47.320601]}},{"type":"Feature","properties":{"OBJECTID":58,"Name":"Bridger Skeet Club","WEBSITE":" ","CONTACT":" ","PHONE":4065800866,"ADDRESS":" ","CITY":"Belgrade","OUTDOOR":"x","INDOOR":" ","ARCH":" ","SHOTG":"x","SHOTGUNTYP":"skeet, trap, sporting, 5 stand","HANDG":" ","RIFLE":" ","MUZZLEL":" "},"geometry":{"type":"Point","coordinates":[-111.19947,45.79444]}},{"type":"Feature","properties":{"OBJECTID":59,"Name":"Meagher County Sportsmen's Association","WEBSITE":"http://www.meaghercosportsmen.com","CONTACT":"Jerry Churchill","PHONE":" ","ADDRESS":"465 Jackson Road\r\n","CITY":"White Sulphur Springs","OUTDOOR":"x","INDOOR":"x","ARCH":"x","SHOTG":"x","SHOTGUNTYP":" ","HANDG":"x","RIFLE":"x","MUZZLEL":"x"},"geometry":{"type":"Point","coordinates":[-110.905372,46.566508]}},{"type":"Feature","properties":{"OBJECTID":60,"Name":"Basin - Last Chance Handgunners","WEBSITE":" ","CONTACT":" ","PHONE":" ","ADDRESS":"230 Cattle drive RD","CITY":"Basin","OUTDOOR":" ","INDOOR":" ","ARCH":" ","SHOTG":" ","SHOTGUNTYP":" ","HANDG":"x","RIFLE":" ","MUZZLEL":" "},"geometry":{"type":"Point","coordinates":[-112.174448,46.24948]}},{"type":"Feature","properties":{"OBJECTID":61,"Name":"Bozeman Rifle Club","WEBSITE":" ","CONTACT":" ","PHONE":" ","ADDRESS":"Gallatin County Fairgrounds","CITY":"Bozeman","OUTDOOR":" ","INDOOR":" ","ARCH":" ","SHOTG":" ","SHOTGUNTYP":" ","HANDG":" ","RIFLE":"x","MUZZLEL":" "},"geometry":{"type":"Point","coordinates":[-111.03591,45.690017]}},{"type":"Feature","properties":{"OBJECTID":62,"Name":"Bridger shooting range","WEBSITE":" ","CONTACT":" ","PHONE":" ","ADDRESS":" ","CITY":"Bridger","OUTDOOR":" ","INDOOR":" ","ARCH":" ","SHOTG":" ","SHOTGUNTYP":" ","HANDG":" ","RIFLE":"x","MUZZLEL":" "},"geometry":{"type":"Point","coordinates":[-108.8711,45.3077]}},{"type":"Feature","properties":{"OBJECTID":63,"Name":"Coffee Creek Trap Club","WEBSITE":" ","CONTACT":" ","PHONE":" ","ADDRESS":"412 Broadway Ave","CITY":"Coffee Creek","OUTDOOR":" ","INDOOR":" ","ARCH":" ","SHOTG":"x","SHOTGUNTYP":" ","HANDG":" ","RIFLE":" ","MUZZLEL":" "},"geometry":{"type":"Point","coordinates":[-110.079632,47.34765]}},{"type":"Feature","properties":{"OBJECTID":64,"Name":"Dagmar-Pioneer Gun Club","WEBSITE":" ","CONTACT":" ","PHONE":" ","ADDRESS":"Park Ave.","CITY":"Dagmar","OUTDOOR":" ","INDOOR":" ","ARCH":" ","SHOTG":"x","SHOTGUNTYP":" ","HANDG":" ","RIFLE":" ","MUZZLEL":" "},"geometry":{"type":"Point","coordinates":[-104.194735,48.582476]}},{"type":"Feature","properties":{"OBJECTID":65,"Name":"Glasgow Fish and Wildlife Assoc. Trap Range","WEBSITE":" ","CONTACT":" ","PHONE":" ","ADDRESS":"off skylark road","CITY":"Glasgow","OUTDOOR":" ","INDOOR":" ","ARCH":" ","SHOTG":"x","SHOTGUNTYP":" ","HANDG":" ","RIFLE":" ","MUZZLEL":" "},"geometry":{"type":"Point","coordinates":[-106.507911,48.147498]}},{"type":"Feature","properties":{"OBJECTID":66,"Name":"Harlowton Shooting Range","WEBSITE":" ","CONTACT":" ","PHONE":" ","ADDRESS":"North of Harlow","CITY":"Harlowton","OUTDOOR":" ","INDOOR":" ","ARCH":" ","SHOTG":" ","SHOTGUNTYP":" ","HANDG":" ","RIFLE":"x","MUZZLEL":" "},"geometry":{"type":"Point","coordinates":[-109.821919,46.454003]}},{"type":"Feature","properties":{"OBJECTID":67,"Name":"Hellgate Civilian Shooters Association-West Riverside","WEBSITE":" ","CONTACT":" ","PHONE":" ","ADDRESS":"7350 Zaugg Drive","CITY":"Missoula","OUTDOOR":" ","INDOOR":" ","ARCH":" ","SHOTG":" ","SHOTGUNTYP":" ","HANDG":" ","RIFLE":"x","MUZZLEL":" "},"geometry":{"type":"Point","coordinates":[-113.89677,46.88329]}},{"type":"Feature","properties":{"OBJECTID":68,"Name":"Kootenai Cross-Country Ski Club","WEBSITE":" ","CONTACT":" ","PHONE":" ","ADDRESS":" ","CITY":"Libby","OUTDOOR":" ","INDOOR":" ","ARCH":" ","SHOTG":" ","SHOTGUNTYP":" ","HANDG":" ","RIFLE":"x","MUZZLEL":" "},"geometry":{"type":"Point","coordinates":[-115.57514,48.3436]}},{"type":"Feature","properties":{"OBJECTID":69,"Name":"Lewis and Clark Co 4H Bldg","WEBSITE":" ","CONTACT":" ","PHONE":" ","ADDRESS":"98 West Custer Ave","CITY":"Helena","OUTDOOR":" ","INDOOR":" ","ARCH":" ","SHOTG":" ","SHOTGUNTYP":" ","HANDG":" ","RIFLE":" ","MUZZLEL":" "},"geometry":{"type":"Point","coordinates":[-112.057022,46.619852]}},{"type":"Feature","properties":{"OBJECTID":70,"Name":"Loring Trap Club","WEBSITE":" ","CONTACT":" ","PHONE":" ","ADDRESS":"69 2nd Ave E.","CITY":"Loring","OUTDOOR":" ","INDOOR":" ","ARCH":" ","SHOTG":"x","SHOTGUNTYP":" ","HANDG":" ","RIFLE":" ","MUZZLEL":" "},"geometry":{"type":"Point","coordinates":[-107.859731,48.78942]}},{"type":"Feature","properties":{"OBJECTID":71,"Name":"Marias Valley Archery","WEBSITE":" ","CONTACT":" ","PHONE":" ","ADDRESS":"off roadrunner Trail","CITY":"Shelby","OUTDOOR":" ","INDOOR":" ","ARCH":"x","SHOTG":" ","SHOTGUNTYP":" ","HANDG":" ","RIFLE":" ","MUZZLEL":" "},"geometry":{"type":"Point","coordinates":[-111.84624,48.52954]}},{"type":"Feature","properties":{"OBJECTID":72,"Name":"Medicine Lake Trap Club","WEBSITE":" ","CONTACT":" ","PHONE":" ","ADDRESS":"325 Section St.","CITY":"Medicine Lake","OUTDOOR":" ","INDOOR":" ","ARCH":" ","SHOTG":"x","SHOTGUNTYP":" ","HANDG":" ","RIFLE":" ","MUZZLEL":" "},"geometry":{"type":"Point","coordinates":[-104.498607,48.507742]}},{"type":"Feature","properties":{"OBJECTID":73,"Name":"Palmer Shooting Range-Boone and Crockett","WEBSITE":" ","CONTACT":" ","PHONE":" ","ADDRESS":"388 Upper TRM Ranch Road","CITY":"Dupuyer","OUTDOOR":" ","INDOOR":" ","ARCH":" ","SHOTG":" ","SHOTGUNTYP":" ","HANDG":" ","RIFLE":"x","MUZZLEL":" "},"geometry":{"type":"Point","coordinates":[-112.6561,48.0943]}},{"type":"Feature","properties":{"OBJECTID":74,"Name":"Rendezvous Ski Trails Biathlon Range","WEBSITE":" ","CONTACT":" ","PHONE":" ","ADDRESS":"99 S Geyser St","CITY":"West Yellowstone","OUTDOOR":" ","INDOOR":" ","ARCH":" ","SHOTG":" ","SHOTGUNTYP":" ","HANDG":" ","RIFLE":"x","MUZZLEL":" "},"geometry":{"type":"Point","coordinates":[-111.108572,44.657361]}},{"type":"Feature","properties":{"OBJECTID":75,"Name":"Roundup Sportmen's Association","WEBSITE":" ","CONTACT":" ","PHONE":" ","ADDRESS":"83 Golf Course Road","CITY":"Roundup","OUTDOOR":" ","INDOOR":" ","ARCH":" ","SHOTG":" ","SHOTGUNTYP":" ","HANDG":" ","RIFLE":" ","MUZZLEL":" "},"geometry":{"type":"Point","coordinates":[-108.564025,46.455852]}},{"type":"Feature","properties":{"OBJECTID":76,"Name":"Ruby Valley Gun Club","WEBSITE":" ","CONTACT":" ","PHONE":" ","ADDRESS":"500 Dry Georgia Gulch Road","CITY":"Sheridan","OUTDOOR":" ","INDOOR":" ","ARCH":" ","SHOTG":" ","SHOTGUNTYP":" ","HANDG":" ","RIFLE":" ","MUZZLEL":" "},"geometry":{"type":"Point","coordinates":[-112.258246,45.507085]}},{"type":"Feature","properties":{"OBJECTID":77,"Name":"Toole County Shooting Sports Program","WEBSITE":" ","CONTACT":" ","PHONE":" ","ADDRESS":"W Marias Fair Road","CITY":"Marias","OUTDOOR":" ","INDOOR":" ","ARCH":" ","SHOTG":" ","SHOTGUNTYP":" ","HANDG":" ","RIFLE":"x","MUZZLEL":" "},"geometry":{"type":"Point","coordinates":[-111.837348,48.494281]}},{"type":"Feature","properties":{"OBJECTID":78,"Name":"Turner Trap","WEBSITE":" ","CONTACT":" ","PHONE":" ","ADDRESS":"50 2nd Street East","CITY":"Turner","OUTDOOR":" ","INDOOR":" ","ARCH":" ","SHOTG":"x","SHOTGUNTYP":" ","HANDG":" ","RIFLE":" ","MUZZLEL":" "},"geometry":{"type":"Point","coordinates":[-108.400911,48.845469]}},{"type":"Feature","properties":{"OBJECTID":79,"Name":"West Yellowstone Shooting Sports Association","WEBSITE":" ","CONTACT":" ","PHONE":" ","ADDRESS":"Park Edge Road","CITY":"West Yellowstone","OUTDOOR":" ","INDOOR":" ","ARCH":" ","SHOTG":" ","SHOTGUNTYP":" ","HANDG":" ","RIFLE":"x","MUZZLEL":" "},"geometry":{"type":"Point","coordinates":[-111.098142,44.624867]}},{"type":"Feature","properties":{"OBJECTID":80,"Name":"Yaak Rod & Gun Club","WEBSITE":" ","CONTACT":" ","PHONE":" ","ADDRESS":"Shooting Range Road","CITY":"Yaak/Troy","OUTDOOR":" ","INDOOR":" ","ARCH":" ","SHOTG":" ","SHOTGUNTYP":" ","HANDG":" ","RIFLE":" ","MUZZLEL":" "},"geometry":{"type":"Point","coordinates":[-115.841332,48.466272]}},{"type":"Feature","properties":{"OBJECTID":81,"Name":"Havre Rifle & Pistol Club","WEBSITE":" ","CONTACT":"Evr Hamblock","PHONE":4062654918,"ADDRESS":"5 miles west on River Road N of Havre\r\n","CITY":"Havre","OUTDOOR":"x","INDOOR":" ","ARCH":"x","SHOTG":" ","SHOTGUNTYP":" ","HANDG":"x","RIFLE":"x","MUZZLEL":" "},"geometry":{"type":"Point","coordinates":[-109.77308,48.582429]}},{"type":"Feature","properties":{"OBJECTID":82,"Name":"Butte Trap Club","WEBSITE":" ","CONTACT":" ","PHONE":" ","ADDRESS":"70 Basin Creek Road/Gun Club Road\r\n","CITY":"Butte","OUTDOOR":"x","INDOOR":" ","ARCH":" ","SHOTG":"x","SHOTGUNTYP":"trap","HANDG":" ","RIFLE":" ","MUZZLEL":" "},"geometry":{"type":"Point","coordinates":[-112.640199,45.987803]}}]}