{
   "type": "FeatureCollection",
   "features": [
  {
    "type": "Feature",
    "geometry": {
       "type": "Point",
       "coordinates":  [ -108.5540753,45.79652193 ]
    },
    "properties": {
    "OBJECTID":7232,
    "IPEDSID":180595,
    "NAME":"ROCKY MOUNTAIN COLLEGE",
    "ADDRESS":"1511 POLY DRIVE",
    "CITY":"BILLINGS",
    "STATE":"MT",
    "ZIP":59102,
    "ZIP4":"NOT AVAILABLE",
    "TELEPHONE":"(406) 657-1000",
    "TYPE":2,
    "STATUS":"A",
    "POPULATION":1266,
    "COUNTY":"YELLOWSTONE",
    "COUNTYFIPS":30111,
    "COUNTRY":"USA",
    "LATITUDE":45.79652193,
    "LONGITUDE":-108.5540753,
    "NAICS_CODE":611310,
    "NAICS_DESC":"COLLEGES, UNIVERSITIES, AND PROFESSIONAL SCHOOLS",
    "SOURCE":"https://nces.ed.gov/GLOBALLOCATOR/col_info_popup.asp?ID=180595",
    "SOURCEDATE":"2009-12-10T00:00:00.000Z",
    "VAL_METHOD":"IMAGERY/OTHER",
    "VAL_DATE":"2016-06-07T00:00:00.000Z",
    "WEBSITE":"rocky.edu",
    "STFIPS":30,
    "COFIPS":111,
    "SECTOR":2,
    "LEVEL_":1,
    "HI_OFFER":7,
    "DEG_GRANT":1,
    "LOCALE":12,
    "CLOSE_DATE":"-2",
    "MERGE_ID":-2,
    "ALIAS":"RMC",
    "SIZE_SET":7,
    "INST_SIZE":2,
    "PT_ENROLL":53,
    "FT_ENROLL":947,
    "TOT_ENROLL":1000,
    "HOUSING":1,
    "DORM_CAP":571,
    "TOT_EMP":266,
    "SHELTER_ID":"NOT AVAILABLE"
    }
  },
  {
    "type": "Feature",
    "geometry": {
       "type": "Point",
       "coordinates":  [ -112.6412818,45.20812551 ]
    },
    "properties": {
    "OBJECTID":7484,
    "IPEDSID":489812,
    "NAME":"PIMA MEDICAL INSTITUTE-DILLON",
    "ADDRESS":"434 E. POINDEXTER STREET",
    "CITY":"DILLON",
    "STATE":"MT",
    "ZIP":59725,
    "ZIP4":"NOT AVAILABLE",
    "TELEPHONE":"(406) 865-0233",
    "TYPE":3,
    "STATUS":"N",
    "POPULATION":40,
    "COUNTY":"BEAVERHEAD",
    "COUNTYFIPS":30001,
    "COUNTRY":"USA",
    "LATITUDE":45.20812551,
    "LONGITUDE":-112.6412818,
    "NAICS_CODE":611210,
    "NAICS_DESC":"JUNIOR COLLEGES",
    "SOURCE":"https://nces.ed.gov/GLOBALLOCATOR/col_info_popup.asp?ID=489812",
    "SOURCEDATE":"2018-02-13T00:00:00.000Z",
    "VAL_METHOD":"IMAGERY/OTHER",
    "VAL_DATE":"2018-04-10T00:00:00.000Z",
    "WEBSITE":"https://pmi.edu/locations/montana/dillon",
    "STFIPS":30,
    "COFIPS":1,
    "SECTOR":6,
    "LEVEL_":2,
    "HI_OFFER":3,
    "DEG_GRANT":1,
    "LOCALE":33,
    "CLOSE_DATE":"-2",
    "MERGE_ID":-2,
    "ALIAS":"NOT AVAILABLE",
    "SIZE_SET":-2,
    "INST_SIZE":1,
    "PT_ENROLL":-999,
    "FT_ENROLL":35,
    "TOT_ENROLL":35,
    "HOUSING":2,
    "DORM_CAP":0,
    "TOT_EMP":5,
    "SHELTER_ID":"NOT AVAILABLE"
    }
  },
  {
    "type": "Feature",
    "geometry": {
       "type": "Point",
       "coordinates":  [ -114.3158991,48.19701991 ]
    },
    "properties": {
    "OBJECTID":4199,
    "IPEDSID":180090,
    "NAME":"CREVIER'S ACADEMY OF COSMETOLOGY ARTS",
    "ADDRESS":"240 WEST IDAHO",
    "CITY":"KALISPELL",
    "STATE":"MT",
    "ZIP":59901,
    "ZIP4":"NOT AVAILABLE",
    "TELEPHONE":"(406) 257-2525",
    "TYPE":3,
    "STATUS":"A",
    "POPULATION":77,
    "COUNTY":"FLATHEAD",
    "COUNTYFIPS":30029,
    "COUNTRY":"USA",
    "LATITUDE":48.19701991,
    "LONGITUDE":-114.3158991,
    "NAICS_CODE":611511,
    "NAICS_DESC":"COSMETOLOGY AND BARBER SCHOOLS",
    "SOURCE":"https://nces.ed.gov/GLOBALLOCATOR/col_info_popup.asp?ID=180090",
    "SOURCEDATE":"2013-06-25T00:00:00.000Z",
    "VAL_METHOD":"IMAGERY/OTHER",
    "VAL_DATE":"2016-05-19T00:00:00.000Z",
    "WEBSITE":"www.crevierschool.com",
    "STFIPS":30,
    "COFIPS":29,
    "SECTOR":6,
    "LEVEL_":2,
    "HI_OFFER":4,
    "DEG_GRANT":2,
    "LOCALE":33,
    "CLOSE_DATE":"-2",
    "MERGE_ID":-2,
    "ALIAS":"NOT AVAILABLE",
    "SIZE_SET":-2,
    "INST_SIZE":1,
    "PT_ENROLL":-999,
    "FT_ENROLL":71,
    "TOT_ENROLL":71,
    "HOUSING":2,
    "DORM_CAP":-999,
    "TOT_EMP":6,
    "SHELTER_ID":"NOT AVAILABLE"
    }
  },
  {
    "type": "Feature",
    "geometry": {
       "type": "Point",
       "coordinates":  [ -111.049918,45.666829 ]
    },
    "properties": {
    "OBJECTID":4360,
    "IPEDSID":180461,
    "NAME":"MONTANA STATE UNIVERSITY",
    "ADDRESS":"MONTANA STATE UNIVERSITY",
    "CITY":"BOZEMAN",
    "STATE":"MT",
    "ZIP":59717,
    "ZIP4":"NOT AVAILABLE",
    "TELEPHONE":"(406) 994-0211",
    "TYPE":1,
    "STATUS":"A",
    "POPULATION":19677,
    "COUNTY":"GALLATIN",
    "COUNTYFIPS":30031,
    "COUNTRY":"USA",
    "LATITUDE":45.666829,
    "LONGITUDE":-111.049918,
    "NAICS_CODE":611310,
    "NAICS_DESC":"COLLEGES, UNIVERSITIES, AND PROFESSIONAL SCHOOLS",
    "SOURCE":"https://nces.ed.gov/GLOBALLOCATOR/col_info_popup.asp?ID=180461",
    "SOURCEDATE":"2009-12-31T00:00:00.000Z",
    "VAL_METHOD":"IMAGERY",
    "VAL_DATE":"2016-06-02T00:00:00.000Z",
    "WEBSITE":"www.montana.edu/",
    "STFIPS":30,
    "COFIPS":31,
    "SECTOR":1,
    "LEVEL_":1,
    "HI_OFFER":9,
    "DEG_GRANT":1,
    "LOCALE":33,
    "CLOSE_DATE":"-2",
    "MERGE_ID":-2,
    "ALIAS":"MSU",
    "SIZE_SET":16,
    "INST_SIZE":4,
    "PT_ENROLL":3545,
    "FT_ENROLL":12814,
    "TOT_ENROLL":16359,
    "HOUSING":1,
    "DORM_CAP":3680,
    "TOT_EMP":3318,
    "SHELTER_ID":"NOT AVAILABLE"
    }
  },
  {
    "type": "Feature",
    "geometry": {
       "type": "Point",
       "coordinates":  [ -108.5398093,45.77674376 ]
    },
    "properties": {
    "OBJECTID":6480,
    "IPEDSID":444316,
    "NAME":"BOLD BEAUTY ACADEMY",
    "ADDRESS":"928 BROADWATER AVE, SUITE C",
    "CITY":"BILLINGS",
    "STATE":"MT",
    "ZIP":59101,
    "ZIP4":"NOT AVAILABLE",
    "TELEPHONE":"(406) 252-3232 EXT 216",
    "TYPE":3,
    "STATUS":"A",
    "POPULATION":136,
    "COUNTY":"YELLOWSTONE",
    "COUNTYFIPS":30111,
    "COUNTRY":"USA",
    "LATITUDE":45.77674376,
    "LONGITUDE":-108.5398093,
    "NAICS_CODE":611511,
    "NAICS_DESC":"COSMETOLOGY AND BARBER SCHOOLS",
    "SOURCE":"https://nces.ed.gov/GLOBALLOCATOR/col_info_popup.asp?ID=444316",
    "SOURCEDATE":"2009-10-13T00:00:00.000Z",
    "VAL_METHOD":"IMAGERY",
    "VAL_DATE":"2016-06-20T00:00:00.000Z",
    "WEBSITE":"boldbeautyacademy.com",
    "STFIPS":30,
    "COFIPS":111,
    "SECTOR":6,
    "LEVEL_":2,
    "HI_OFFER":4,
    "DEG_GRANT":2,
    "LOCALE":12,
    "CLOSE_DATE":"-2",
    "MERGE_ID":-2,
    "ALIAS":"NOT AVAILABLE",
    "SIZE_SET":-2,
    "INST_SIZE":1,
    "PT_ENROLL":-999,
    "FT_ENROLL":125,
    "TOT_ENROLL":125,
    "HOUSING":2,
    "DORM_CAP":-999,
    "TOT_EMP":11,
    "SHELTER_ID":"NOT AVAILABLE"
    }
  },
  {
    "type": "Feature",
    "geometry": {
       "type": "Point",
       "coordinates":  [ -111.0407448,45.67778733 ]
    },
    "properties": {
    "OBJECTID":6487,
    "IPEDSID":444644,
    "NAME":"HEALTH WORKS INSTITUTE",
    "ADDRESS":"407 WEST MAIN STREET",
    "CITY":"BOZEMAN",
    "STATE":"MT",
    "ZIP":59715,
    "ZIP4":"NOT AVAILABLE",
    "TELEPHONE":"(406) 582-1555",
    "TYPE":3,
    "STATUS":"A",
    "POPULATION":62,
    "COUNTY":"GALLATIN",
    "COUNTYFIPS":30031,
    "COUNTRY":"USA",
    "LATITUDE":45.67778733,
    "LONGITUDE":-111.0407448,
    "NAICS_CODE":611519,
    "NAICS_DESC":"OTHER TECHNICAL AND TRADE SCHOOLS",
    "SOURCE":"https://nces.ed.gov/GLOBALLOCATOR/col_info_popup.asp?ID=444644",
    "SOURCEDATE":"2009-10-13T00:00:00.000Z",
    "VAL_METHOD":"GEOCODE",
    "VAL_DATE":"2016-06-20T00:00:00.000Z",
    "WEBSITE":"www.healthworks.edu",
    "STFIPS":30,
    "COFIPS":31,
    "SECTOR":9,
    "LEVEL_":3,
    "HI_OFFER":2,
    "DEG_GRANT":2,
    "LOCALE":33,
    "CLOSE_DATE":"-2",
    "MERGE_ID":-2,
    "ALIAS":"NOT AVAILABLE",
    "SIZE_SET":-2,
    "INST_SIZE":1,
    "PT_ENROLL":-999,
    "FT_ENROLL":33,
    "TOT_ENROLL":33,
    "HOUSING":2,
    "DORM_CAP":-999,
    "TOT_EMP":29,
    "SHELTER_ID":"NOT AVAILABLE"
    }
  },
  {
    "type": "Feature",
    "geometry": {
       "type": "Point",
       "coordinates":  [ -112.6392641,45.20830634 ]
    },
    "properties": {
    "OBJECTID":6885,
    "IPEDSID":180692,
    "NAME":"THE UNIVERSITY OF MONTANA-WESTERN",
    "ADDRESS":"710 S ATLANTIC",
    "CITY":"DILLON",
    "STATE":"MT",
    "ZIP":59725,
    "ZIP4":"NOT AVAILABLE",
    "TELEPHONE":"(406) 683-7011",
    "TYPE":1,
    "STATUS":"A",
    "POPULATION":1756,
    "COUNTY":"BEAVERHEAD",
    "COUNTYFIPS":30001,
    "COUNTRY":"USA",
    "LATITUDE":45.20830634,
    "LONGITUDE":-112.6392641,
    "NAICS_CODE":611310,
    "NAICS_DESC":"COLLEGES, UNIVERSITIES, AND PROFESSIONAL SCHOOLS",
    "SOURCE":"https://nces.ed.gov/GLOBALLOCATOR/col_info_popup.asp?ID=180692",
    "SOURCEDATE":"2009-10-13T00:00:00.000Z",
    "VAL_METHOD":"IMAGERY/OTHER",
    "VAL_DATE":"2015-11-20T00:00:00.000Z",
    "WEBSITE":"www.umwestern.edu",
    "STFIPS":30,
    "COFIPS":1,
    "SECTOR":1,
    "LEVEL_":1,
    "HI_OFFER":5,
    "DEG_GRANT":1,
    "LOCALE":33,
    "CLOSE_DATE":"-2",
    "MERGE_ID":-2,
    "ALIAS":"WESTERN MONTANA COLLEGE OF THE UNIVERSITY OF MONTANA |WESTERN MONTANA COLLEGE |MONTANA WESTERN |WESTERN |UM WESTERN |WMC |WMC-UM |UMW",
    "SIZE_SET":9,
    "INST_SIZE":2,
    "PT_ENROLL":273,
    "FT_ENROLL":1232,
    "TOT_ENROLL":1505,
    "HOUSING":1,
    "DORM_CAP":420,
    "TOT_EMP":251,
    "SHELTER_ID":"NOT AVAILABLE"
    }
  },
  {
    "type": "Feature",
    "geometry": {
       "type": "Point",
       "coordinates":  [ -111.2697901,47.48609439 ]
    },
    "properties": {
    "OBJECTID":6886,
    "IPEDSID":180249,
    "NAME":"GREAT FALLS COLLEGE MONTANA STATE UNIVERSITY",
    "ADDRESS":"2100 16TH AVE S",
    "CITY":"GREAT FALLS",
    "STATE":"MT",
    "ZIP":59405,
    "ZIP4":"NOT AVAILABLE",
    "TELEPHONE":"(406) 771-4300",
    "TYPE":1,
    "STATUS":"A",
    "POPULATION":1901,
    "COUNTY":"CASCADE",
    "COUNTYFIPS":30013,
    "COUNTRY":"USA",
    "LATITUDE":47.48609439,
    "LONGITUDE":-111.2697901,
    "NAICS_CODE":611210,
    "NAICS_DESC":"JUNIOR COLLEGES",
    "SOURCE":"https://nces.ed.gov/GLOBALLOCATOR/col_info_popup.asp?ID=180249",
    "SOURCEDATE":"2009-10-13T00:00:00.000Z",
    "VAL_METHOD":"IMAGERY/OTHER",
    "VAL_DATE":"2016-06-29T00:00:00.000Z",
    "WEBSITE":"www.gfcmsu.edu",
    "STFIPS":30,
    "COFIPS":13,
    "SECTOR":4,
    "LEVEL_":2,
    "HI_OFFER":3,
    "DEG_GRANT":1,
    "LOCALE":13,
    "CLOSE_DATE":"-2",
    "MERGE_ID":-2,
    "ALIAS":"NOT AVAILABLE",
    "SIZE_SET":2,
    "INST_SIZE":2,
    "PT_ENROLL":1016,
    "FT_ENROLL":658,
    "TOT_ENROLL":1674,
    "HOUSING":2,
    "DORM_CAP":-999,
    "TOT_EMP":227,
    "SHELTER_ID":"NOT AVAILABLE"
    }
  },
  {
    "type": "Feature",
    "geometry": {
       "type": "Point",
       "coordinates":  [ -105.8265235,46.40525963 ]
    },
    "properties": {
    "OBJECTID":6887,
    "IPEDSID":180373,
    "NAME":"MILES COMMUNITY COLLEGE",
    "ADDRESS":"2715 DICKINSON STREET",
    "CITY":"MILES CITY",
    "STATE":"MT",
    "ZIP":59301,
    "ZIP4":"NOT AVAILABLE",
    "TELEPHONE":"(800) 541-9281",
    "TYPE":1,
    "STATUS":"A",
    "POPULATION":645,
    "COUNTY":"CUSTER",
    "COUNTYFIPS":30017,
    "COUNTRY":"USA",
    "LATITUDE":46.40525963,
    "LONGITUDE":-105.8265235,
    "NAICS_CODE":611210,
    "NAICS_DESC":"JUNIOR COLLEGES",
    "SOURCE":"https://nces.ed.gov/GLOBALLOCATOR/col_info_popup.asp?ID=180373",
    "SOURCEDATE":"2009-10-13T00:00:00.000Z",
    "VAL_METHOD":"IMAGERY/OTHER",
    "VAL_DATE":"2016-06-29T00:00:00.000Z",
    "WEBSITE":"www.milescc.edu/",
    "STFIPS":30,
    "COFIPS":17,
    "SECTOR":4,
    "LEVEL_":2,
    "HI_OFFER":3,
    "DEG_GRANT":1,
    "LOCALE":33,
    "CLOSE_DATE":"-2",
    "MERGE_ID":-2,
    "ALIAS":"NOT AVAILABLE",
    "SIZE_SET":1,
    "INST_SIZE":1,
    "PT_ENROLL":208,
    "FT_ENROLL":289,
    "TOT_ENROLL":497,
    "HOUSING":1,
    "DORM_CAP":181,
    "TOT_EMP":148,
    "SHELTER_ID":"10795861"
    }
  },
  {
    "type": "Feature",
    "geometry": {
       "type": "Point",
       "coordinates":  [ -104.7254854,47.08539614 ]
    },
    "properties": {
    "OBJECTID":6888,
    "IPEDSID":180151,
    "NAME":"DAWSON COMMUNITY COLLEGE",
    "ADDRESS":"300 COLLEGE DR",
    "CITY":"GLENDIVE",
    "STATE":"MT",
    "ZIP":59330,
    "ZIP4":"NOT AVAILABLE",
    "TELEPHONE":"(406) 377-3396",
    "TYPE":1,
    "STATUS":"A",
    "POPULATION":359,
    "COUNTY":"DAWSON",
    "COUNTYFIPS":30021,
    "COUNTRY":"USA",
    "LATITUDE":47.08539614,
    "LONGITUDE":-104.7254854,
    "NAICS_CODE":611210,
    "NAICS_DESC":"JUNIOR COLLEGES",
    "SOURCE":"https://nces.ed.gov/GLOBALLOCATOR/col_info_popup.asp?ID=180151",
    "SOURCEDATE":"2009-10-13T00:00:00.000Z",
    "VAL_METHOD":"IMAGERY/OTHER",
    "VAL_DATE":"2016-06-29T00:00:00.000Z",
    "WEBSITE":"www.dawson.edu",
    "STFIPS":30,
    "COFIPS":21,
    "SECTOR":4,
    "LEVEL_":2,
    "HI_OFFER":3,
    "DEG_GRANT":1,
    "LOCALE":33,
    "CLOSE_DATE":"-2",
    "MERGE_ID":-2,
    "ALIAS":"DCC; DAWSON COLLEGE; DAWSON JUNIOR COLLEGE",
    "SIZE_SET":1,
    "INST_SIZE":1,
    "PT_ENROLL":126,
    "FT_ENROLL":171,
    "TOT_ENROLL":297,
    "HOUSING":1,
    "DORM_CAP":144,
    "TOT_EMP":62,
    "SHELTER_ID":"NOT AVAILABLE"
    }
  },
  {
    "type": "Feature",
    "geometry": {
       "type": "Point",
       "coordinates":  [ -114.0283929,46.84311224 ]
    },
    "properties": {
    "OBJECTID":6889,
    "IPEDSID":180391,
    "NAME":"MODERN BEAUTY SCHOOL INC",
    "ADDRESS":"2036 MULLAN ROAD",
    "CITY":"MISSOULA",
    "STATE":"MT",
    "ZIP":59808,
    "ZIP4":"NOT AVAILABLE",
    "TELEPHONE":"(406) 549-9608",
    "TYPE":3,
    "STATUS":"M",
    "POPULATION":-999,
    "COUNTY":"MISSOULA",
    "COUNTYFIPS":30063,
    "COUNTRY":"USA",
    "LATITUDE":46.84311224,
    "LONGITUDE":-114.0283929,
    "NAICS_CODE":611511,
    "NAICS_DESC":"COSMETOLOGY AND BARBER SCHOOLS",
    "SOURCE":"https://nces.ed.gov/GLOBALLOCATOR/col_info_popup.asp?ID=180391",
    "SOURCEDATE":"2009-10-13T00:00:00.000Z",
    "VAL_METHOD":"GEOCODE",
    "VAL_DATE":"2016-06-29T00:00:00.000Z",
    "WEBSITE":"modernbeautyschool.org",
    "STFIPS":30,
    "COFIPS":63,
    "SECTOR":6,
    "LEVEL_":2,
    "HI_OFFER":4,
    "DEG_GRANT":2,
    "LOCALE":13,
    "CLOSE_DATE":"10/28/2016",
    "MERGE_ID":-2,
    "ALIAS":"NOT AVAILABLE",
    "SIZE_SET":-2,
    "INST_SIZE":1,
    "PT_ENROLL":-999,
    "FT_ENROLL":-999,
    "TOT_ENROLL":-999,
    "HOUSING":2,
    "DORM_CAP":-999,
    "TOT_EMP":-999,
    "SHELTER_ID":"NOT AVAILABLE"
    }
  },
  {
    "type": "Feature",
    "geometry": {
       "type": "Point",
       "coordinates":  [ -112.5408125,46.01278871 ]
    },
    "properties": {
    "OBJECTID":6890,
    "IPEDSID":180063,
    "NAME":"BUTTE ACADEMY OF BEAUTY CULTURE",
    "ADDRESS":"303 W PARK ST",
    "CITY":"BUTTE",
    "STATE":"MT",
    "ZIP":59701,
    "ZIP4":"NOT AVAILABLE",
    "TELEPHONE":"(406) 782-6297",
    "TYPE":3,
    "STATUS":"A",
    "POPULATION":51,
    "COUNTY":"SILVER BOW",
    "COUNTYFIPS":30093,
    "COUNTRY":"USA",
    "LATITUDE":46.01278871,
    "LONGITUDE":-112.5408125,
    "NAICS_CODE":611511,
    "NAICS_DESC":"COSMETOLOGY AND BARBER SCHOOLS",
    "SOURCE":"https://nces.ed.gov/GLOBALLOCATOR/col_info_popup.asp?ID=180063",
    "SOURCEDATE":"2009-10-13T00:00:00.000Z",
    "VAL_METHOD":"IMAGERY/OTHER",
    "VAL_DATE":"2016-06-29T00:00:00.000Z",
    "WEBSITE":"butteacademyofbeauty.ipage.com/",
    "STFIPS":30,
    "COFIPS":93,
    "SECTOR":6,
    "LEVEL_":2,
    "HI_OFFER":4,
    "DEG_GRANT":2,
    "LOCALE":33,
    "CLOSE_DATE":"-2",
    "MERGE_ID":-2,
    "ALIAS":"BUTTE ACADEMY OF BEAUTY",
    "SIZE_SET":-2,
    "INST_SIZE":1,
    "PT_ENROLL":-999,
    "FT_ENROLL":44,
    "TOT_ENROLL":44,
    "HOUSING":2,
    "DORM_CAP":-999,
    "TOT_EMP":7,
    "SHELTER_ID":"NOT AVAILABLE"
    }
  },
  {
    "type": "Feature",
    "geometry": {
       "type": "Point",
       "coordinates":  [ -112.5093648,45.93814508 ]
    },
    "properties": {
    "OBJECTID":6891,
    "IPEDSID":180081,
    "NAME":"HIGHLANDS COLLEGE OF MONTANA TECH",
    "ADDRESS":"25 BASIN CREEK RD",
    "CITY":"BUTTE",
    "STATE":"MT",
    "ZIP":59701,
    "ZIP4":"NOT AVAILABLE",
    "TELEPHONE":"(406) 496-3711",
    "TYPE":1,
    "STATUS":"A",
    "POPULATION":777,
    "COUNTY":"SILVER BOW",
    "COUNTYFIPS":30093,
    "COUNTRY":"USA",
    "LATITUDE":45.93814508,
    "LONGITUDE":-112.5093648,
    "NAICS_CODE":611210,
    "NAICS_DESC":"JUNIOR COLLEGES",
    "SOURCE":"https://nces.ed.gov/GLOBALLOCATOR/col_info_popup.asp?ID=180081",
    "SOURCEDATE":"2009-10-13T00:00:00.000Z",
    "VAL_METHOD":"IMAGERY/OTHER",
    "VAL_DATE":"2016-06-29T00:00:00.000Z",
    "WEBSITE":"www.mtech.edu/",
    "STFIPS":30,
    "COFIPS":93,
    "SECTOR":4,
    "LEVEL_":2,
    "HI_OFFER":3,
    "DEG_GRANT":1,
    "LOCALE":33,
    "CLOSE_DATE":"-2",
    "MERGE_ID":-2,
    "ALIAS":"NOT AVAILABLE",
    "SIZE_SET":2,
    "INST_SIZE":1,
    "PT_ENROLL":373,
    "FT_ENROLL":404,
    "TOT_ENROLL":777,
    "HOUSING":1,
    "DORM_CAP":283,
    "TOT_EMP":-999,
    "SHELTER_ID":"NOT AVAILABLE"
    }
  },
  {
    "type": "Feature",
    "geometry": {
       "type": "Point",
       "coordinates":  [ -112.557,46.01216364 ]
    },
    "properties": {
    "OBJECTID":6892,
    "IPEDSID":180416,
    "NAME":"MONTANA TECH OF THE UNIVERSITY OF MONTANA",
    "ADDRESS":"1300 W PARK ST",
    "CITY":"BUTTE",
    "STATE":"MT",
    "ZIP":59701,
    "ZIP4":"NOT AVAILABLE",
    "TELEPHONE":"(406) 496-4256",
    "TYPE":1,
    "STATUS":"A",
    "POPULATION":2596,
    "COUNTY":"SILVER BOW",
    "COUNTYFIPS":30093,
    "COUNTRY":"USA",
    "LATITUDE":46.01216364,
    "LONGITUDE":-112.557,
    "NAICS_CODE":611310,
    "NAICS_DESC":"COLLEGES, UNIVERSITIES, AND PROFESSIONAL SCHOOLS",
    "SOURCE":"https://nces.ed.gov/GLOBALLOCATOR/col_info_popup.asp?ID=180416",
    "SOURCEDATE":"2009-10-13T00:00:00.000Z",
    "VAL_METHOD":"IMAGERY/OTHER",
    "VAL_DATE":"2016-06-29T00:00:00.000Z",
    "WEBSITE":"www.mtech.edu",
    "STFIPS":30,
    "COFIPS":93,
    "SECTOR":1,
    "LEVEL_":1,
    "HI_OFFER":9,
    "DEG_GRANT":1,
    "LOCALE":33,
    "CLOSE_DATE":"-2",
    "MERGE_ID":-2,
    "ALIAS":"NOT AVAILABLE",
    "SIZE_SET":9,
    "INST_SIZE":2,
    "PT_ENROLL":271,
    "FT_ENROLL":1761,
    "TOT_ENROLL":2032,
    "HOUSING":1,
    "DORM_CAP":283,
    "TOT_EMP":564,
    "SHELTER_ID":"10781388"
    }
  },
  {
    "type": "Feature",
    "geometry": {
       "type": "Point",
       "coordinates":  [ -111.0641425,45.65552446 ]
    },
    "properties": {
    "OBJECTID":2225,
    "IPEDSID":262165,
    "NAME":"MONTANA BIBLE COLLEGE",
    "ADDRESS":"3625 S 19TH AVE",
    "CITY":"BOZEMAN",
    "STATE":"MT",
    "ZIP":59718,
    "ZIP4":"NOT AVAILABLE",
    "TELEPHONE":"(406) 586-3585",
    "TYPE":2,
    "STATUS":"A",
    "POPULATION":-999,
    "COUNTY":"GALLATIN",
    "COUNTYFIPS":30031,
    "COUNTRY":"USA",
    "LATITUDE":45.65552446,
    "LONGITUDE":-111.0641425,
    "NAICS_CODE":611310,
    "NAICS_DESC":"COLLEGES, UNIVERSITIES, AND PROFESSIONAL SCHOOLS",
    "SOURCE":"https://nces.ed.gov/GLOBALLOCATOR/col_info_popup.asp?ID=262165",
    "SOURCEDATE":"2013-11-04T00:00:00.000Z",
    "VAL_METHOD":"IMAGERY",
    "VAL_DATE":"2016-05-18T00:00:00.000Z",
    "WEBSITE":"www.montanabiblecollege.edu",
    "STFIPS":30,
    "COFIPS":31,
    "SECTOR":2,
    "LEVEL_":1,
    "HI_OFFER":5,
    "DEG_GRANT":1,
    "LOCALE":41,
    "CLOSE_DATE":"-2",
    "MERGE_ID":-2,
    "ALIAS":"NOT AVAILABLE",
    "SIZE_SET":7,
    "INST_SIZE":1,
    "PT_ENROLL":-999,
    "FT_ENROLL":-999,
    "TOT_ENROLL":-999,
    "HOUSING":1,
    "DORM_CAP":68,
    "TOT_EMP":-999,
    "SHELTER_ID":"NOT AVAILABLE"
    }
  },
  {
    "type": "Feature",
    "geometry": {
       "type": "Point",
       "coordinates":  [ -113.98294,46.861074 ]
    },
    "properties": {
    "OBJECTID":2247,
    "IPEDSID":180489,
    "NAME":"THE UNIVERSITY OF MONTANA",
    "ADDRESS":"MISSOULA, MONTANA",
    "CITY":"MISSOULA",
    "STATE":"MT",
    "ZIP":59812,
    "ZIP4":"NOT AVAILABLE",
    "TELEPHONE":"(406) 243-0211",
    "TYPE":1,
    "STATUS":"A",
    "POPULATION":14878,
    "COUNTY":"MISSOULA",
    "COUNTYFIPS":30063,
    "COUNTRY":"USA",
    "LATITUDE":46.861074,
    "LONGITUDE":-113.98294,
    "NAICS_CODE":611310,
    "NAICS_DESC":"COLLEGES, UNIVERSITIES, AND PROFESSIONAL SCHOOLS",
    "SOURCE":"https://nces.ed.gov/GLOBALLOCATOR/col_info_popup.asp?ID=180489",
    "SOURCEDATE":"2009-12-31T00:00:00.000Z",
    "VAL_METHOD":"IMAGERY",
    "VAL_DATE":"2015-11-20T00:00:00.000Z",
    "WEBSITE":"www.umt.edu",
    "STFIPS":30,
    "COFIPS":63,
    "SECTOR":1,
    "LEVEL_":1,
    "HI_OFFER":9,
    "DEG_GRANT":1,
    "LOCALE":13,
    "CLOSE_DATE":"-2",
    "MERGE_ID":-2,
    "ALIAS":"UNIVERSITY OF MONTANA",
    "SIZE_SET":16,
    "INST_SIZE":4,
    "PT_ENROLL":3371,
    "FT_ENROLL":9048,
    "TOT_ENROLL":12419,
    "HOUSING":1,
    "DORM_CAP":3430,
    "TOT_EMP":2459,
    "SHELTER_ID":"NOT AVAILABLE"
    }
  },
  {
    "type": "Feature",
    "geometry": {
       "type": "Point",
       "coordinates":  [ -113.01473,48.556728 ]
    },
    "properties": {
    "OBJECTID":2943,
    "IPEDSID":180054,
    "NAME":"BLACKFEET COMMUNITY COLLEGE",
    "ADDRESS":"504 S. EAST BOUNDARY",
    "CITY":"BROWNING",
    "STATE":"MT",
    "ZIP":59417,
    "ZIP4":"NOT AVAILABLE",
    "TELEPHONE":"(406) 338-5441 EXT 2201",
    "TYPE":2,
    "STATUS":"A",
    "POPULATION":575,
    "COUNTY":"GLACIER",
    "COUNTYFIPS":30035,
    "COUNTRY":"USA",
    "LATITUDE":48.556728,
    "LONGITUDE":-113.01473,
    "NAICS_CODE":611210,
    "NAICS_DESC":"JUNIOR COLLEGES",
    "SOURCE":"https://nces.ed.gov/GLOBALLOCATOR/col_info_popup.asp?ID=180054",
    "SOURCEDATE":"2009-12-31T00:00:00.000Z",
    "VAL_METHOD":"IMAGERY",
    "VAL_DATE":"2016-06-02T00:00:00.000Z",
    "WEBSITE":"bfcc.edu",
    "STFIPS":30,
    "COFIPS":35,
    "SECTOR":5,
    "LEVEL_":2,
    "HI_OFFER":3,
    "DEG_GRANT":1,
    "LOCALE":41,
    "CLOSE_DATE":"-2",
    "MERGE_ID":-2,
    "ALIAS":"BCC",
    "SIZE_SET":1,
    "INST_SIZE":1,
    "PT_ENROLL":69,
    "FT_ENROLL":356,
    "TOT_ENROLL":425,
    "HOUSING":2,
    "DORM_CAP":-999,
    "TOT_EMP":150,
    "SHELTER_ID":"NOT AVAILABLE"
    }
  },
  {
    "type": "Feature",
    "geometry": {
       "type": "Point",
       "coordinates":  [ -106.66459,45.625559 ]
    },
    "properties": {
    "OBJECTID":2944,
    "IPEDSID":180160,
    "NAME":"CHIEF DULL KNIFE COLLEGE",
    "ADDRESS":"1 COLLEGE DRIVE",
    "CITY":"LAME DEER",
    "STATE":"MT",
    "ZIP":59043,
    "ZIP4":"NOT AVAILABLE",
    "TELEPHONE":"(406) 477-6215 EXT 100",
    "TYPE":1,
    "STATUS":"A",
    "POPULATION":222,
    "COUNTY":"ROSEBUD",
    "COUNTYFIPS":30087,
    "COUNTRY":"USA",
    "LATITUDE":45.625559,
    "LONGITUDE":-106.66459,
    "NAICS_CODE":611310,
    "NAICS_DESC":"COLLEGES, UNIVERSITIES, AND PROFESSIONAL SCHOOLS",
    "SOURCE":"https://nces.ed.gov/GLOBALLOCATOR/col_info_popup.asp?ID=180160",
    "SOURCEDATE":"2009-12-31T00:00:00.000Z",
    "VAL_METHOD":"IMAGERY",
    "VAL_DATE":"2016-06-02T00:00:00.000Z",
    "WEBSITE":"cdkc.edu",
    "STFIPS":30,
    "COFIPS":87,
    "SECTOR":4,
    "LEVEL_":2,
    "HI_OFFER":3,
    "DEG_GRANT":1,
    "LOCALE":43,
    "CLOSE_DATE":"-2",
    "MERGE_ID":-2,
    "ALIAS":"NOT AVAILABLE",
    "SIZE_SET":1,
    "INST_SIZE":1,
    "PT_ENROLL":78,
    "FT_ENROLL":90,
    "TOT_ENROLL":168,
    "HOUSING":2,
    "DORM_CAP":-999,
    "TOT_EMP":54,
    "SHELTER_ID":"NOT AVAILABLE"
    }
  },
  {
    "type": "Feature",
    "geometry": {
       "type": "Point",
       "coordinates":  [ -108.523009,45.79689588 ]
    },
    "properties": {
    "OBJECTID":2945,
    "IPEDSID":180179,
    "NAME":"MONTANA STATE UNIVERSITY-BILLINGS",
    "ADDRESS":"1500 UNIVERSITY DRIVE",
    "CITY":"BILLINGS",
    "STATE":"MT",
    "ZIP":59101,
    "ZIP4":"NOT AVAILABLE",
    "TELEPHONE":"(406) 657-2011",
    "TYPE":1,
    "STATUS":"A",
    "POPULATION":4998,
    "COUNTY":"YELLOWSTONE",
    "COUNTYFIPS":30111,
    "COUNTRY":"USA",
    "LATITUDE":45.79689588,
    "LONGITUDE":-108.523009,
    "NAICS_CODE":611310,
    "NAICS_DESC":"COLLEGES, UNIVERSITIES, AND PROFESSIONAL SCHOOLS",
    "SOURCE":"https://nces.ed.gov/GLOBALLOCATOR/col_info_popup.asp?ID=180179",
    "SOURCEDATE":"2009-10-13T00:00:00.000Z",
    "VAL_METHOD":"IMAGERY",
    "VAL_DATE":"2016-06-10T00:00:00.000Z",
    "WEBSITE":"www.msubillings.edu",
    "STFIPS":30,
    "COFIPS":111,
    "SECTOR":1,
    "LEVEL_":1,
    "HI_OFFER":7,
    "DEG_GRANT":1,
    "LOCALE":12,
    "CLOSE_DATE":"-2",
    "MERGE_ID":-2,
    "ALIAS":"MSU BILLINGS",
    "SIZE_SET":12,
    "INST_SIZE":2,
    "PT_ENROLL":1693,
    "FT_ENROLL":2669,
    "TOT_ENROLL":4362,
    "HOUSING":1,
    "DORM_CAP":630,
    "TOT_EMP":636,
    "SHELTER_ID":"NOT AVAILABLE"
    }
  },
  {
    "type": "Feature",
    "geometry": {
       "type": "Point",
       "coordinates":  [ -105.193021,48.113569 ]
    },
    "properties": {
    "OBJECTID":2946,
    "IPEDSID":180212,
    "NAME":"FORT PECK COMMUNITY COLLEGE",
    "ADDRESS":"605 INDIAN STREET",
    "CITY":"POPLAR",
    "STATE":"MT",
    "ZIP":59255,
    "ZIP4":"NOT AVAILABLE",
    "TELEPHONE":"(406) 768-6300",
    "TYPE":1,
    "STATUS":"A",
    "POPULATION":474,
    "COUNTY":"ROOSEVELT",
    "COUNTYFIPS":30085,
    "COUNTRY":"USA",
    "LATITUDE":48.113569,
    "LONGITUDE":-105.193021,
    "NAICS_CODE":611210,
    "NAICS_DESC":"JUNIOR COLLEGES",
    "SOURCE":"https://nces.ed.gov/GLOBALLOCATOR/col_info_popup.asp?ID=180212",
    "SOURCEDATE":"2009-12-31T00:00:00.000Z",
    "VAL_METHOD":"IMAGERY",
    "VAL_DATE":"2016-06-02T00:00:00.000Z",
    "WEBSITE":"www.fpcc.edu",
    "STFIPS":30,
    "COFIPS":85,
    "SECTOR":4,
    "LEVEL_":2,
    "HI_OFFER":3,
    "DEG_GRANT":1,
    "LOCALE":33,
    "CLOSE_DATE":"-2",
    "MERGE_ID":-2,
    "ALIAS":"NOT AVAILABLE",
    "SIZE_SET":1,
    "INST_SIZE":1,
    "PT_ENROLL":177,
    "FT_ENROLL":208,
    "TOT_ENROLL":385,
    "HOUSING":1,
    "DORM_CAP":20,
    "TOT_EMP":89,
    "SHELTER_ID":"NOT AVAILABLE"
    }
  },
  {
    "type": "Feature",
    "geometry": {
       "type": "Point",
       "coordinates":  [ -112.0160349,46.59538385 ]
    },
    "properties": {
    "OBJECTID":2947,
    "IPEDSID":180276,
    "NAME":"HELENA COLLEGE UNIVERSITY OF MONTANA",
    "ADDRESS":"1115 N ROBERTS STREET",
    "CITY":"HELENA",
    "STATE":"MT",
    "ZIP":59601,
    "ZIP4":"NOT AVAILABLE",
    "TELEPHONE":"(406) 447-6900",
    "TYPE":1,
    "STATUS":"A",
    "POPULATION":1612,
    "COUNTY":"LEWIS AND CLARK",
    "COUNTYFIPS":30049,
    "COUNTRY":"USA",
    "LATITUDE":46.59538385,
    "LONGITUDE":-112.0160349,
    "NAICS_CODE":611210,
    "NAICS_DESC":"JUNIOR COLLEGES",
    "SOURCE":"https://nces.ed.gov/GLOBALLOCATOR/col_info_popup.asp?ID=180276",
    "SOURCEDATE":"2009-10-13T00:00:00.000Z",
    "VAL_METHOD":"IMAGERY",
    "VAL_DATE":"2016-06-13T00:00:00.000Z",
    "WEBSITE":"www.umhelena.edu",
    "STFIPS":30,
    "COFIPS":49,
    "SECTOR":4,
    "LEVEL_":2,
    "HI_OFFER":3,
    "DEG_GRANT":1,
    "LOCALE":33,
    "CLOSE_DATE":"-2",
    "MERGE_ID":-2,
    "ALIAS":"HELENA COLLEGE UM.",
    "SIZE_SET":2,
    "INST_SIZE":2,
    "PT_ENROLL":856,
    "FT_ENROLL":540,
    "TOT_ENROLL":1396,
    "HOUSING":2,
    "DORM_CAP":-999,
    "TOT_EMP":216,
    "SHELTER_ID":"NOT AVAILABLE"
    }
  },
  {
    "type": "Feature",
    "geometry": {
       "type": "Point",
       "coordinates":  [ -107.455418,45.603777 ]
    },
    "properties": {
    "OBJECTID":2948,
    "IPEDSID":180328,
    "NAME":"LITTLE BIG HORN COLLEGE",
    "ADDRESS":"8645 SOUTH WEAVER DRIVE",
    "CITY":"CROW AGENCY",
    "STATE":"MT",
    "ZIP":59022,
    "ZIP4":"NOT AVAILABLE",
    "TELEPHONE":"(406) 638-3100 EXT 101",
    "TYPE":1,
    "STATUS":"A",
    "POPULATION":310,
    "COUNTY":"BIG HORN",
    "COUNTYFIPS":30003,
    "COUNTRY":"USA",
    "LATITUDE":45.603777,
    "LONGITUDE":-107.455418,
    "NAICS_CODE":611310,
    "NAICS_DESC":"COLLEGES, UNIVERSITIES, AND PROFESSIONAL SCHOOLS",
    "SOURCE":"https://nces.ed.gov/GLOBALLOCATOR/col_info_popup.asp?ID=180328",
    "SOURCEDATE":"2009-12-31T00:00:00.000Z",
    "VAL_METHOD":"IMAGERY",
    "VAL_DATE":"2016-06-02T00:00:00.000Z",
    "WEBSITE":"www.lbhc.edu/",
    "STFIPS":30,
    "COFIPS":3,
    "SECTOR":4,
    "LEVEL_":2,
    "HI_OFFER":3,
    "DEG_GRANT":1,
    "LOCALE":43,
    "CLOSE_DATE":"-2",
    "MERGE_ID":-2,
    "ALIAS":"NOT AVAILABLE",
    "SIZE_SET":1,
    "INST_SIZE":1,
    "PT_ENROLL":58,
    "FT_ENROLL":165,
    "TOT_ENROLL":223,
    "HOUSING":2,
    "DORM_CAP":-999,
    "TOT_EMP":87,
    "SHELTER_ID":"NOT AVAILABLE"
    }
  },
  {
    "type": "Feature",
    "geometry": {
       "type": "Point",
       "coordinates":  [ -114.107191,47.596864 ]
    },
    "properties": {
    "OBJECTID":2949,
    "IPEDSID":180647,
    "NAME":"SALISH KOOTENAI COLLEGE",
    "ADDRESS":"58138 US  HIGHWAY 93",
    "CITY":"PABLO",
    "STATE":"MT",
    "ZIP":59855,
    "ZIP4":"NOT AVAILABLE",
    "TELEPHONE":"(406) 275-4800",
    "TYPE":2,
    "STATUS":"A",
    "POPULATION":1048,
    "COUNTY":"LAKE",
    "COUNTYFIPS":30047,
    "COUNTRY":"USA",
    "LATITUDE":47.596864,
    "LONGITUDE":-114.107191,
    "NAICS_CODE":611310,
    "NAICS_DESC":"COLLEGES, UNIVERSITIES, AND PROFESSIONAL SCHOOLS",
    "SOURCE":"https://nces.ed.gov/GLOBALLOCATOR/col_info_popup.asp?ID=180647",
    "SOURCEDATE":"2009-12-31T00:00:00.000Z",
    "VAL_METHOD":"IMAGERY",
    "VAL_DATE":"2016-06-03T00:00:00.000Z",
    "WEBSITE":"www.skc.edu",
    "STFIPS":30,
    "COFIPS":47,
    "SECTOR":2,
    "LEVEL_":1,
    "HI_OFFER":5,
    "DEG_GRANT":1,
    "LOCALE":42,
    "CLOSE_DATE":"-2",
    "MERGE_ID":-2,
    "ALIAS":"SKC",
    "SIZE_SET":6,
    "INST_SIZE":1,
    "PT_ENROLL":172,
    "FT_ENROLL":687,
    "TOT_ENROLL":859,
    "HOUSING":1,
    "DORM_CAP":125,
    "TOT_EMP":189,
    "SHELTER_ID":"NOT AVAILABLE"
    }
  },
  {
    "type": "Feature",
    "geometry": {
       "type": "Point",
       "coordinates":  [ -111.2701673,47.4902788 ]
    },
    "properties": {
    "OBJECTID":3197,
    "IPEDSID":180258,
    "NAME":"UNIVERSITY OF GREAT FALLS",
    "ADDRESS":"1301 TWENTIETH ST S",
    "CITY":"GREAT FALLS",
    "STATE":"MT",
    "ZIP":59405,
    "ZIP4":"NOT AVAILABLE",
    "TELEPHONE":"(406) 761-8210",
    "TYPE":2,
    "STATUS":"A",
    "POPULATION":1176,
    "COUNTY":"CASCADE",
    "COUNTYFIPS":30013,
    "COUNTRY":"USA",
    "LATITUDE":47.4902788,
    "LONGITUDE":-111.2701673,
    "NAICS_CODE":611310,
    "NAICS_DESC":"COLLEGES, UNIVERSITIES, AND PROFESSIONAL SCHOOLS",
    "SOURCE":"https://nces.ed.gov/GLOBALLOCATOR/col_info_popup.asp?ID=180258",
    "SOURCEDATE":"2009-10-13T00:00:00.000Z",
    "VAL_METHOD":"IMAGERY/OTHER",
    "VAL_DATE":"2015-11-09T00:00:00.000Z",
    "WEBSITE":"www.ugf.edu",
    "STFIPS":30,
    "COFIPS":13,
    "SECTOR":2,
    "LEVEL_":1,
    "HI_OFFER":7,
    "DEG_GRANT":1,
    "LOCALE":13,
    "CLOSE_DATE":"-2",
    "MERGE_ID":-2,
    "ALIAS":"NOT AVAILABLE",
    "SIZE_SET":7,
    "INST_SIZE":1,
    "PT_ENROLL":452,
    "FT_ENROLL":505,
    "TOT_ENROLL":957,
    "HOUSING":1,
    "DORM_CAP":415,
    "TOT_EMP":219,
    "SHELTER_ID":"NOT AVAILABLE"
    }
  },
  {
    "type": "Feature",
    "geometry": {
       "type": "Point",
       "coordinates":  [ -109.6864569,48.54105359 ]
    },
    "properties": {
    "OBJECTID":3198,
    "IPEDSID":180522,
    "NAME":"MONTANA STATE UNIVERSITY-NORTHERN",
    "ADDRESS":"300 W 11TH ST",
    "CITY":"HAVRE",
    "STATE":"MT",
    "ZIP":59501,
    "ZIP4":"NOT AVAILABLE",
    "TELEPHONE":"(406) 265-3700",
    "TYPE":1,
    "STATUS":"A",
    "POPULATION":1430,
    "COUNTY":"HILL",
    "COUNTYFIPS":30041,
    "COUNTRY":"USA",
    "LATITUDE":48.54105359,
    "LONGITUDE":-109.6864569,
    "NAICS_CODE":611310,
    "NAICS_DESC":"COLLEGES, UNIVERSITIES, AND PROFESSIONAL SCHOOLS",
    "SOURCE":"https://nces.ed.gov/GLOBALLOCATOR/col_info_popup.asp?ID=180522",
    "SOURCEDATE":"2009-10-13T00:00:00.000Z",
    "VAL_METHOD":"IMAGERY/OTHER",
    "VAL_DATE":"2016-06-29T00:00:00.000Z",
    "WEBSITE":"www.msun.edu",
    "STFIPS":30,
    "COFIPS":41,
    "SECTOR":1,
    "LEVEL_":1,
    "HI_OFFER":7,
    "DEG_GRANT":1,
    "LOCALE":33,
    "CLOSE_DATE":"-2",
    "MERGE_ID":-2,
    "ALIAS":"NOT AVAILABLE",
    "SIZE_SET":9,
    "INST_SIZE":2,
    "PT_ENROLL":314,
    "FT_ENROLL":893,
    "TOT_ENROLL":1207,
    "HOUSING":1,
    "DORM_CAP":373,
    "TOT_EMP":223,
    "SHELTER_ID":"NOT AVAILABLE"
    }
  },
  {
    "type": "Feature",
    "geometry": {
       "type": "Point",
       "coordinates":  [ -112.0406298,46.60211334 ]
    },
    "properties": {
    "OBJECTID":3199,
    "IPEDSID":180106,
    "NAME":"CARROLL COLLEGE",
    "ADDRESS":"1601 N BENTON AVE",
    "CITY":"HELENA",
    "STATE":"MT",
    "ZIP":59625,
    "ZIP4":"NOT AVAILABLE",
    "TELEPHONE":"(406) 447-4300",
    "TYPE":2,
    "STATUS":"A",
    "POPULATION":1684,
    "COUNTY":"LEWIS AND CLARK",
    "COUNTYFIPS":30049,
    "COUNTRY":"USA",
    "LATITUDE":46.60211334,
    "LONGITUDE":-112.0406298,
    "NAICS_CODE":611310,
    "NAICS_DESC":"COLLEGES, UNIVERSITIES, AND PROFESSIONAL SCHOOLS",
    "SOURCE":"https://nces.ed.gov/GLOBALLOCATOR/col_info_popup.asp?ID=180106",
    "SOURCEDATE":"2009-10-13T00:00:00.000Z",
    "VAL_METHOD":"IMAGERY/OTHER",
    "VAL_DATE":"2016-06-29T00:00:00.000Z",
    "WEBSITE":"www.carroll.edu",
    "STFIPS":30,
    "COFIPS":49,
    "SECTOR":2,
    "LEVEL_":1,
    "HI_OFFER":5,
    "DEG_GRANT":1,
    "LOCALE":33,
    "CLOSE_DATE":"-2",
    "MERGE_ID":-2,
    "ALIAS":"CARROLL MONTANA |CC",
    "SIZE_SET":11,
    "INST_SIZE":2,
    "PT_ENROLL":56,
    "FT_ENROLL":1324,
    "TOT_ENROLL":1380,
    "HOUSING":1,
    "DORM_CAP":983,
    "TOT_EMP":304,
    "SHELTER_ID":"NOT AVAILABLE"
    }
  },
  {
    "type": "Feature",
    "geometry": {
       "type": "Point",
       "coordinates":  [ -109.8703319,48.28983869 ]
    },
    "properties": {
    "OBJECTID":3419,
    "IPEDSID":366340,
    "NAME":"STONE CHILD COLLEGE",
    "ADDRESS":"8294 UPPER BOX ELDER ROAD",
    "CITY":"BOX ELDER",
    "STATE":"MT",
    "ZIP":59521,
    "ZIP4":"NOT AVAILABLE",
    "TELEPHONE":"(406) 395-4313 EXT 264",
    "TYPE":1,
    "STATUS":"A",
    "POPULATION":602,
    "COUNTY":"CHOUTEAU",
    "COUNTYFIPS":30015,
    "COUNTRY":"USA",
    "LATITUDE":48.28983869,
    "LONGITUDE":-109.8703319,
    "NAICS_CODE":611310,
    "NAICS_DESC":"COLLEGES, UNIVERSITIES, AND PROFESSIONAL SCHOOLS",
    "SOURCE":"https://nces.ed.gov/GLOBALLOCATOR/col_info_popup.asp?ID=366340",
    "SOURCEDATE":"2009-12-31T00:00:00.000Z",
    "VAL_METHOD":"IMAGERY",
    "VAL_DATE":"2016-06-06T00:00:00.000Z",
    "WEBSITE":"www.stonechild.edu",
    "STFIPS":30,
    "COFIPS":15,
    "SECTOR":4,
    "LEVEL_":2,
    "HI_OFFER":3,
    "DEG_GRANT":1,
    "LOCALE":43,
    "CLOSE_DATE":"-2",
    "MERGE_ID":-2,
    "ALIAS":"SCC",
    "SIZE_SET":1,
    "INST_SIZE":1,
    "PT_ENROLL":380,
    "FT_ENROLL":164,
    "TOT_ENROLL":544,
    "HOUSING":2,
    "DORM_CAP":-999,
    "TOT_EMP":58,
    "SHELTER_ID":"NOT AVAILABLE"
    }
  },
  {
    "type": "Feature",
    "geometry": {
       "type": "Point",
       "coordinates":  [ -111.3037189,47.49848666 ]
    },
    "properties": {
    "OBJECTID":3985,
    "IPEDSID":457749,
    "NAME":"MONTANA ACADEMY OF SALONS",
    "ADDRESS":"501 2ND ST S",
    "CITY":"GREAT FALLS",
    "STATE":"MT",
    "ZIP":59405,
    "ZIP4":"NOT AVAILABLE",
    "TELEPHONE":"(406) 771-8772 EXT 4",
    "TYPE":3,
    "STATUS":"A",
    "POPULATION":81,
    "COUNTY":"CASCADE",
    "COUNTYFIPS":30013,
    "COUNTRY":"USA",
    "LATITUDE":47.49848666,
    "LONGITUDE":-111.3037189,
    "NAICS_CODE":611511,
    "NAICS_DESC":"COSMETOLOGY AND BARBER SCHOOLS",
    "SOURCE":"https://nces.ed.gov/GLOBALLOCATOR/col_info_popup.asp?ID=457749",
    "SOURCEDATE":"2013-06-25T00:00:00.000Z",
    "VAL_METHOD":"IMAGERY/OTHER",
    "VAL_DATE":"2015-11-20T00:00:00.000Z",
    "WEBSITE":"montanabeautyschool.com",
    "STFIPS":30,
    "COFIPS":13,
    "SECTOR":6,
    "LEVEL_":2,
    "HI_OFFER":4,
    "DEG_GRANT":2,
    "LOCALE":13,
    "CLOSE_DATE":"-2",
    "MERGE_ID":-2,
    "ALIAS":"MONTANA ACADEMY",
    "SIZE_SET":-2,
    "INST_SIZE":1,
    "PT_ENROLL":-999,
    "FT_ENROLL":69,
    "TOT_ENROLL":69,
    "HOUSING":2,
    "DORM_CAP":-999,
    "TOT_EMP":12,
    "SHELTER_ID":"NOT AVAILABLE"
    }
  },
  {
    "type": "Feature",
    "geometry": {
       "type": "Point",
       "coordinates":  [ -108.7579012,48.48416977 ]
    },
    "properties": {
    "OBJECTID":14,
    "IPEDSID":180203,
    "NAME":"AANIIIH NAKODA COLLEGE",
    "ADDRESS":"269 BLACKFEET AVENUE AGENCY",
    "CITY":"HARLEM",
    "STATE":"MT",
    "ZIP":59526,
    "ZIP4":"NOT AVAILABLE",
    "TELEPHONE":"(406) 353-2607",
    "TYPE":1,
    "STATUS":"A",
    "POPULATION":213,
    "COUNTY":"BLAINE",
    "COUNTYFIPS":30005,
    "COUNTRY":"USA",
    "LATITUDE":48.48416977,
    "LONGITUDE":-108.7579012,
    "NAICS_CODE":611310,
    "NAICS_DESC":"COLLEGES, UNIVERSITIES, AND PROFESSIONAL SCHOOLS",
    "SOURCE":"https://nces.ed.gov/GLOBALLOCATOR/col_info_popup.asp?ID=180203",
    "SOURCEDATE":"2009-12-31T00:00:00.000Z",
    "VAL_METHOD":"IMAGERY/OTHER",
    "VAL_DATE":"2015-10-13T00:00:00.000Z",
    "WEBSITE":"www.ancollege.edu",
    "STFIPS":30,
    "COFIPS":5,
    "SECTOR":4,
    "LEVEL_":2,
    "HI_OFFER":3,
    "DEG_GRANT":1,
    "LOCALE":43,
    "CLOSE_DATE":"-2",
    "MERGE_ID":-2,
    "ALIAS":"NOT AVAILABLE",
    "SIZE_SET":1,
    "INST_SIZE":1,
    "PT_ENROLL":35,
    "FT_ENROLL":114,
    "TOT_ENROLL":149,
    "HOUSING":2,
    "DORM_CAP":-999,
    "TOT_EMP":64,
    "SHELTER_ID":"NOT AVAILABLE"
    }
  },
  {
    "type": "Feature",
    "geometry": {
       "type": "Point",
       "coordinates":  [ -111.0397683,45.6805045 ]
    },
    "properties": {
    "OBJECTID":25,
    "IPEDSID":179991,
    "NAME":"ACADEMY OF COSMETOLOGY",
    "ADDRESS":"133 W MENDENHALL",
    "CITY":"BOZEMAN",
    "STATE":"MT",
    "ZIP":59715,
    "ZIP4":"3544",
    "TELEPHONE":"(406) 587-1264",
    "TYPE":3,
    "STATUS":"A",
    "POPULATION":39,
    "COUNTY":"GALLATIN",
    "COUNTYFIPS":30031,
    "COUNTRY":"USA",
    "LATITUDE":45.6805045,
    "LONGITUDE":-111.0397683,
    "NAICS_CODE":611511,
    "NAICS_DESC":"COSMETOLOGY AND BARBER SCHOOLS",
    "SOURCE":"https://nces.ed.gov/GLOBALLOCATOR/col_info_popup.asp?ID=179991",
    "SOURCEDATE":"2009-10-13T00:00:00.000Z",
    "VAL_METHOD":"IMAGERY/OTHER",
    "VAL_DATE":"2015-10-14T00:00:00.000Z",
    "WEBSITE":"www.academycosmetology.com",
    "STFIPS":30,
    "COFIPS":31,
    "SECTOR":6,
    "LEVEL_":2,
    "HI_OFFER":4,
    "DEG_GRANT":2,
    "LOCALE":33,
    "CLOSE_DATE":"-2",
    "MERGE_ID":-2,
    "ALIAS":"NOT AVAILABLE",
    "SIZE_SET":-2,
    "INST_SIZE":1,
    "PT_ENROLL":-999,
    "FT_ENROLL":35,
    "TOT_ENROLL":35,
    "HOUSING":2,
    "DORM_CAP":-999,
    "TOT_EMP":4,
    "SHELTER_ID":"NOT AVAILABLE"
    }
  },
  {
    "type": "Feature",
    "geometry": {
       "type": "Point",
       "coordinates":  [ -114.3272578,48.22738927 ]
    },
    "properties": {
    "OBJECTID":514,
    "IPEDSID":180197,
    "NAME":"FLATHEAD VALLEY COMMUNITY COLLEGE",
    "ADDRESS":"777 GRANDVIEW DR",
    "CITY":"KALISPELL",
    "STATE":"MT",
    "ZIP":59901,
    "ZIP4":"NOT AVAILABLE",
    "TELEPHONE":"(406) 756-3822",
    "TYPE":1,
    "STATUS":"A",
    "POPULATION":2621,
    "COUNTY":"FLATHEAD",
    "COUNTYFIPS":30029,
    "COUNTRY":"USA",
    "LATITUDE":48.22738927,
    "LONGITUDE":-114.3272578,
    "NAICS_CODE":611210,
    "NAICS_DESC":"JUNIOR COLLEGES",
    "SOURCE":"https://nces.ed.gov/GLOBALLOCATOR/col_info_popup.asp?ID=180197",
    "SOURCEDATE":"2009-10-13T00:00:00.000Z",
    "VAL_METHOD":"IMAGERY/OTHER",
    "VAL_DATE":"2016-07-07T00:00:00.000Z",
    "WEBSITE":"www.fvcc.edu",
    "STFIPS":30,
    "COFIPS":29,
    "SECTOR":4,
    "LEVEL_":2,
    "HI_OFFER":3,
    "DEG_GRANT":1,
    "LOCALE":41,
    "CLOSE_DATE":"-2",
    "MERGE_ID":-2,
    "ALIAS":"NOT AVAILABLE",
    "SIZE_SET":2,
    "INST_SIZE":2,
    "PT_ENROLL":1273,
    "FT_ENROLL":993,
    "TOT_ENROLL":2266,
    "HOUSING":2,
    "DORM_CAP":-999,
    "TOT_EMP":355,
    "SHELTER_ID":"10775449"
    }
  },
  {
    "type": "Feature",
    "geometry": {
       "type": "Point",
       "coordinates":  [ -114.1594487,46.27347519 ]
    },
    "properties": {
    "OBJECTID":558,
    "IPEDSID":457721,
    "NAME":"BITTERROOT SCHOOL OF COSMETOLOGY",
    "ADDRESS":"2079 N FIRST ST STE B",
    "CITY":"HAMILTON",
    "STATE":"MT",
    "ZIP":59840,
    "ZIP4":"NOT AVAILABLE",
    "TELEPHONE":"(406) 363-3355",
    "TYPE":3,
    "STATUS":"A",
    "POPULATION":26,
    "COUNTY":"RAVALLI",
    "COUNTYFIPS":30081,
    "COUNTRY":"USA",
    "LATITUDE":46.27347519,
    "LONGITUDE":-114.1594487,
    "NAICS_CODE":611511,
    "NAICS_DESC":"COSMETOLOGY AND BARBER SCHOOLS",
    "SOURCE":"https://nces.ed.gov/GLOBALLOCATOR/col_info_popup.asp?ID=457721",
    "SOURCEDATE":"2013-06-25T00:00:00.000Z",
    "VAL_METHOD":"IMAGERY/OTHER",
    "VAL_DATE":"2016-05-23T00:00:00.000Z",
    "WEBSITE":"bitterrootschoolofcosmetology.com",
    "STFIPS":30,
    "COFIPS":81,
    "SECTOR":6,
    "LEVEL_":2,
    "HI_OFFER":4,
    "DEG_GRANT":2,
    "LOCALE":33,
    "CLOSE_DATE":"-2",
    "MERGE_ID":-2,
    "ALIAS":"NOT AVAILABLE",
    "SIZE_SET":-2,
    "INST_SIZE":1,
    "PT_ENROLL":-999,
    "FT_ENROLL":22,
    "TOT_ENROLL":22,
    "HOUSING":2,
    "DORM_CAP":-999,
    "TOT_EMP":4,
    "SHELTER_ID":"NOT AVAILABLE"
    }
  }
]
}